[{"location":{"lat":55.5376879,"lng":42.0791342},"created":"8/12/2018","headline":"eros elementum pellentesque quisque porta volutpat erat","comment":"mauris eget massa tempor convallis nulla neque libero convallis eget","title":"Cross-group even-keeled service-desk","picture":"https://robohash.org/quiquishic.bmp?size=50x50&set=set1"},
    {"location":{"lat":52.1557661,"lng":11.5721966},"created":"5/29/2018","headline":"maecenas leo odio condimentum id luctus nec molestie sed","comment":"at ipsum ac tellus semper interdum mauris ullamcorper purus sit amet","title":"Vision-oriented 3rd generation function","picture":"https://robohash.org/etsintcumque.jpg?size=50x50&set=set1"},
    {"location":{"lat":19.3947363,"lng":-70.5263459},"created":"1/8/2019","headline":"cum sociis natoque penatibus et magnis dis","comment":"ac nulla sed vel enim sit amet nunc viverra dapibus nulla suscipit ligula in","title":"Customer-focused interactive architecture","picture":"https://robohash.org/aliquidquivoluptas.jpg?size=50x50&set=set1"},
    {"location":{"lat":37.2944409,"lng":62.3682506},"created":"6/22/2018","headline":"libero nullam sit amet turpis elementum ligula","comment":"velit nec nisi vulputate nonummy maecenas tincidunt lacus at velit vivamus vel nulla eget","title":"Programmable uniform access","picture":"https://robohash.org/eteavoluptates.png?size=50x50&set=set1"},
    {"location":{"lat":-24.7995226,"lng":-65.434694},"created":"4/9/2018","headline":"suspendisse potenti nullam porttitor lacus at turpis donec posuere","comment":"sapien a libero nam dui proin leo odio porttitor id consequat in consequat ut nulla sed","title":"Reduced static capability","picture":"https://robohash.org/delectusearumet.png?size=50x50&set=set1"},
    {"location":{"lat":48.7618689,"lng":14.732221},"created":"11/27/2018","headline":"sit amet consectetuer adipiscing elit proin interdum mauris non ligula","comment":"praesent id massa id nisl venenatis lacinia aenean sit amet justo morbi ut odio cras mi","title":"Innovative intermediate hierarchy","picture":"https://robohash.org/culpaeaearum.bmp?size=50x50&set=set1"},
    {"location":{"lat":-14.9210683,"lng":-49.609512},"created":"7/6/2018","headline":"tristique in tempus sit amet sem fusce consequat nulla nisl","comment":"duis bibendum felis sed interdum venenatis turpis enim blandit mi in porttitor pede justo eu massa donec dapibus duis","title":"Customer-focused non-volatile hierarchy","picture":"https://robohash.org/nobisrecusandaeperspiciatis.png?size=50x50&set=set1"},
    {"location":{"lat":43.0174717,"lng":60.011507},"created":"6/25/2018","headline":"non mauris morbi non lectus aliquam","comment":"leo pellentesque ultrices mattis odio donec vitae nisi nam ultrices libero non mattis pulvinar nulla","title":"Pre-emptive systemic collaboration","picture":"https://robohash.org/consequatureaquelaborum.png?size=50x50&set=set1"},
    {"location":{"lat":39.928353,"lng":116.416357},"created":"12/18/2018","headline":"est congue elementum in hac habitasse","comment":"praesent blandit nam nulla integer pede justo lacinia eget tincidunt eget tempus vel pede morbi","title":"Universal discrete hardware","picture":"https://robohash.org/utvoluptatumdignissimos.jpg?size=50x50&set=set1"},
    {"location":{"lat":-36.6062618,"lng":-72.1023351},"created":"12/27/2018","headline":"nulla eget eros elementum pellentesque","comment":"habitasse platea dictumst aliquam augue quam sollicitudin vitae consectetuer eget rutrum","title":"Visionary multi-tasking moderator","picture":"https://robohash.org/iurerecusandaesit.png?size=50x50&set=set1"},
    {"location":{"lat":61.4559668,"lng":23.7382315},"created":"1/10/2019","headline":"pellentesque ultrices phasellus id sapien in sapien iaculis","comment":"nibh in quis justo maecenas rhoncus aliquam lacus morbi quis tortor id nulla ultrices aliquet","title":"Front-line maximized website","picture":"https://robohash.org/consequaturabet.bmp?size=50x50&set=set1"},
    {"location":{"lat":40.1207224,"lng":70.6157308},"created":"5/6/2018","headline":"convallis morbi odio odio elementum eu interdum","comment":"sagittis dui vel nisl duis ac nibh fusce lacus purus aliquet at","title":"Right-sized analyzing knowledge user","picture":"https://robohash.org/sapientesaepeaut.jpg?size=50x50&set=set1"},
    {"location":{"lat":6.7527994,"lng":79.8949309},"created":"8/3/2018","headline":"sollicitudin ut suscipit a feugiat et eros vestibulum ac est","comment":"sed justo pellentesque viverra pede ac diam cras pellentesque volutpat dui maecenas","title":"Multi-tiered upward-trending challenge","picture":"https://robohash.org/fugaeosrecusandae.jpg?size=50x50&set=set1"},
    {"location":{"lat":47.7437283,"lng":27.9542722},"created":"11/22/2018","headline":"at vulputate vitae nisl aenean lectus pellentesque eget nunc","comment":"duis bibendum morbi non quam nec dui luctus rutrum nulla tellus in","title":"Adaptive asynchronous Graphic Interface","picture":"https://robohash.org/molestiaemolestiasrecusandae.png?size=50x50&set=set1"},
    {"location":{"lat":12.712478,"lng":124.036411},"created":"4/3/2018","headline":"sapien ut nunc vestibulum ante ipsum","comment":"nibh in hac habitasse platea dictumst aliquam augue quam sollicitudin vitae consectetuer eget rutrum at","title":"Multi-tiered motivating matrices","picture":"https://robohash.org/quiaomniseveniet.bmp?size=50x50&set=set1"},
    {"location":{"lat":46.9981458,"lng":-0.2101206},"created":"10/6/2018","headline":"ac consequat metus sapien ut nunc vestibulum ante ipsum primis","comment":"amet nunc viverra dapibus nulla suscipit ligula in lacus curabitur at ipsum ac tellus semper interdum mauris","title":"Secured fault-tolerant help-desk","picture":"https://robohash.org/enimeaullam.bmp?size=50x50&set=set1"},
    {"location":{"lat":42.8271637,"lng":2.9134412},"created":"5/7/2018","headline":"quam pede lobortis ligula sit amet eleifend pede","comment":"nulla neque libero convallis eget eleifend luctus ultricies eu nibh","title":"Virtual responsive knowledge user","picture":"https://robohash.org/veritatisbeataenihil.jpg?size=50x50&set=set1"},
    {"location":{"lat":5.472709,"lng":-74.667984},"created":"2/21/2018","headline":"nibh ligula nec sem duis aliquam convallis nunc proin at","comment":"dolor sit amet consectetuer adipiscing elit proin risus praesent lectus vestibulum quam sapien","title":"Visionary mobile methodology","picture":"https://robohash.org/consequaturesteum.jpg?size=50x50&set=set1"},
    {"location":{"lat":37.369435,"lng":97.360984},"created":"5/16/2018","headline":"ante ipsum primis in faucibus orci luctus et ultrices","comment":"vulputate justo in blandit ultrices enim lorem ipsum dolor sit amet consectetuer adipiscing elit proin interdum mauris non ligula pellentesque","title":"Implemented zero administration model","picture":"https://robohash.org/etremut.jpg?size=50x50&set=set1"},
    {"location":{"lat":5.4552197,"lng":100.4115631},"created":"11/4/2018","headline":"mi nulla ac enim in tempor turpis nec euismod","comment":"congue risus semper porta volutpat quam pede lobortis ligula sit amet","title":"Cloned system-worthy knowledge base","picture":"https://robohash.org/doloressintnostrum.bmp?size=50x50&set=set1"},
    {"location":{"lat":40.9993168,"lng":22.0336319},"created":"6/17/2018","headline":"faucibus orci luctus et ultrices","comment":"in sapien iaculis congue vivamus metus arcu adipiscing molestie hendrerit at vulputate vitae","title":"Synergistic interactive hardware","picture":"https://robohash.org/harumquispraesentium.jpg?size=50x50&set=set1"},
    {"location":{"lat":14.7127327,"lng":121.0279622},"created":"12/18/2018","headline":"sem sed sagittis nam congue risus semper porta volutpat","comment":"lacus morbi sem mauris laoreet ut rhoncus aliquet pulvinar sed","title":"Organized client-driven emulation","picture":"https://robohash.org/quicumquenon.jpg?size=50x50&set=set1"},
    {"location":{"lat":13.4326204,"lng":-87.4554432},"created":"6/20/2018","headline":"orci nullam molestie nibh in lectus pellentesque at nulla suspendisse","comment":"est risus auctor sed tristique in tempus sit amet sem fusce consequat nulla nisl nunc nisl duis bibendum felis","title":"Front-line fresh-thinking database","picture":"https://robohash.org/etquoaperiam.bmp?size=50x50&set=set1"},
    {"location":{"lat":-14.4040989,"lng":-56.4370932},"created":"11/2/2018","headline":"porttitor lacus at turpis donec","comment":"sed tristique in tempus sit amet sem fusce consequat nulla nisl nunc nisl duis","title":"Team-oriented interactive middleware","picture":"https://robohash.org/enimetomnis.jpg?size=50x50&set=set1"},
    {"location":{"lat":35.4755834,"lng":44.4075911},"created":"8/21/2018","headline":"hac habitasse platea dictumst morbi vestibulum velit","comment":"fringilla rhoncus mauris enim leo rhoncus sed vestibulum sit amet","title":"Synchronised maximized website","picture":"https://robohash.org/quosfacereea.png?size=50x50&set=set1"},
    {"location":{"lat":49.6927765,"lng":75.5895888},"created":"3/12/2018","headline":"sem fusce consequat nulla nisl","comment":"tellus nisi eu orci mauris lacinia sapien quis libero nullam sit","title":"Vision-oriented content-based customer loyalty","picture":"https://robohash.org/quasrepellatsapiente.bmp?size=50x50&set=set1"},
    {"location":{"lat":59.913104,"lng":10.7238941},"created":"5/11/2018","headline":"ipsum primis in faucibus orci luctus et ultrices posuere","comment":"vel est donec odio justo sollicitudin ut suscipit a feugiat et eros","title":"Streamlined object-oriented strategy","picture":"https://robohash.org/ututaut.bmp?size=50x50&set=set1"},
    {"location":{"lat":25.849502,"lng":107.280659},"created":"2/27/2018","headline":"libero non mattis pulvinar nulla pede ullamcorper augue a","comment":"faucibus cursus urna ut tellus nulla ut erat id mauris vulputate elementum nullam varius","title":"Multi-lateral maximized time-frame","picture":"https://robohash.org/itaqueadipiscivero.png?size=50x50&set=set1"},
    {"location":{"lat":-7.0872117,"lng":110.9134113},"created":"6/15/2018","headline":"condimentum curabitur in libero ut massa volutpat convallis morbi odio","comment":"condimentum id luctus nec molestie sed justo pellentesque viverra pede ac diam cras pellentesque volutpat dui","title":"Reverse-engineered scalable attitude","picture":"https://robohash.org/dictaauteligendi.bmp?size=50x50&set=set1"},
    {"location":{"lat":22.923431,"lng":112.732632},"created":"5/7/2018","headline":"sollicitudin ut suscipit a feugiat et eros vestibulum ac est","comment":"praesent id massa id nisl venenatis lacinia aenean sit amet justo morbi ut odio cras","title":"Virtual executive neural-net","picture":"https://robohash.org/quisquamnequevitae.bmp?size=50x50&set=set1"},
    {"location":{"lat":57.9675068,"lng":12.577321},"created":"1/28/2018","headline":"proin risus praesent lectus vestibulum quam","comment":"molestie lorem quisque ut erat curabitur gravida nisi at nibh in","title":"Re-contextualized 4th generation portal","picture":"https://robohash.org/errorfacilissed.png?size=50x50&set=set1"},
    {"location":{"lat":49.6933676,"lng":14.0095887},"created":"11/27/2018","headline":"eu interdum eu tincidunt in","comment":"eu felis fusce posuere felis sed lacus morbi sem mauris laoreet ut rhoncus aliquet pulvinar","title":"Reduced asymmetric info-mediaries","picture":"https://robohash.org/autreiciendisvoluptas.bmp?size=50x50&set=set1"},
    {"location":{"lat":-6.8806715,"lng":108.5017948},"created":"12/14/2018","headline":"phasellus id sapien in sapien iaculis congue","comment":"vitae nisl aenean lectus pellentesque eget nunc donec quis orci eget","title":"Reactive empowering monitoring","picture":"https://robohash.org/facilisatminus.bmp?size=50x50&set=set1"},
    {"location":{"lat":54.8098373,"lng":36.3116274},"created":"7/27/2018","headline":"quis tortor id nulla ultrices aliquet maecenas leo odio","comment":"odio porttitor id consequat in consequat ut nulla sed accumsan felis ut at dolor quis odio consequat varius","title":"Extended leading edge benchmark","picture":"https://robohash.org/excepturiodioet.bmp?size=50x50&set=set1"},
    {"location":{"lat":58.5023638,"lng":13.1702373},"created":"5/30/2018","headline":"amet sapien dignissim vestibulum vestibulum ante ipsum primis in faucibus","comment":"eget nunc donec quis orci eget orci vehicula condimentum curabitur in libero ut massa volutpat convallis morbi","title":"Universal intangible throughput","picture":"https://robohash.org/nemoducimusnumquam.png?size=50x50&set=set1"},
    {"location":{"lat":34.810487,"lng":117.323725},"created":"8/14/2018","headline":"risus semper porta volutpat quam pede lobortis ligula sit amet","comment":"sit amet eleifend pede libero quis orci nullam molestie nibh in lectus pellentesque","title":"Innovative clear-thinking array","picture":"https://robohash.org/doloremqueoccaecatidoloribus.png?size=50x50&set=set1"},
    {"location":{"lat":9.9817261,"lng":122.5356326},"created":"6/16/2018","headline":"nunc proin at turpis a pede","comment":"mattis pulvinar nulla pede ullamcorper augue a suscipit nulla elit ac nulla","title":"Multi-layered full-range infrastructure","picture":"https://robohash.org/mollitiaetaccusantium.png?size=50x50&set=set1"},
    {"location":{"lat":34.401112,"lng":107.759245},"created":"12/19/2018","headline":"libero non mattis pulvinar nulla pede ullamcorper augue a suscipit","comment":"aliquet massa id lobortis convallis tortor risus dapibus augue vel accumsan tellus nisi eu orci mauris","title":"Function-based systematic success","picture":"https://robohash.org/asperioresperferendisexplicabo.jpg?size=50x50&set=set1"},
    {"location":{"lat":"46.23333","lng":"29.83333"},"created":"2/11/2018","headline":"elit ac nulla sed vel enim sit","comment":"vestibulum ante ipsum primis in faucibus orci luctus et ultrices posuere cubilia curae","title":"Intuitive mobile parallelism","picture":"https://robohash.org/rationenonperferendis.jpg?size=50x50&set=set1"},
    {"location":{"lat":55.4928171,"lng":45.6316463},"created":"2/5/2018","headline":"magna vulputate luctus cum sociis natoque penatibus et","comment":"orci vehicula condimentum curabitur in libero ut massa volutpat convallis morbi odio odio elementum eu interdum eu","title":"Down-sized optimal middleware","picture":"https://robohash.org/aestsint.jpg?size=50x50&set=set1"},
    {"location":{"lat":-13.1435017,"lng":28.4163103},"created":"12/27/2018","headline":"commodo vulputate justo in blandit ultrices enim lorem ipsum","comment":"sit amet erat nulla tempus vivamus in felis eu sapien cursus","title":"Synergized cohesive neural-net","picture":"https://robohash.org/liberononnatus.png?size=50x50&set=set1"},
    {"location":{"lat":52.3824851,"lng":13.3993839},"created":"2/27/2018","headline":"nibh fusce lacus purus aliquet","comment":"vestibulum ante ipsum primis in faucibus orci luctus et ultrices posuere cubilia curae nulla dapibus dolor vel est donec","title":"Organic multi-state neural-net","picture":"https://robohash.org/essepariaturaut.jpg?size=50x50&set=set1"},
    {"location":{"lat":49.2147869,"lng":15.8795516},"created":"8/1/2018","headline":"eu magna vulputate luctus cum sociis natoque penatibus","comment":"pretium quis lectus suspendisse potenti in eleifend quam a odio in hac habitasse platea","title":"Sharable incremental hardware","picture":"https://robohash.org/utsequiest.png?size=50x50&set=set1"},
    {"location":{"lat":49.0365227,"lng":14.6173515},"created":"2/20/2018","headline":"sapien arcu sed augue aliquam erat volutpat in","comment":"in felis eu sapien cursus vestibulum proin eu mi nulla","title":"Realigned 4th generation process improvement","picture":"https://robohash.org/nonexplicaboeius.jpg?size=50x50&set=set1"},
    {"location":{"lat":12.647214,"lng":102.0032957},"created":"11/6/2018","headline":"primis in faucibus orci luctus et ultrices posuere cubilia curae","comment":"scelerisque quam turpis adipiscing lorem vitae mattis nibh ligula nec sem duis aliquam convallis nunc proin at turpis a","title":"Robust eco-centric groupware","picture":"https://robohash.org/omnisetitaque.bmp?size=50x50&set=set1"},
    {"location":{"lat":-34.6230015,"lng":-58.5764959},"created":"4/9/2018","headline":"diam erat fermentum justo nec condimentum","comment":"nisi venenatis tristique fusce congue diam id ornare imperdiet sapien urna pretium nisl","title":"Horizontal explicit algorithm","picture":"https://robohash.org/molestiaelaboriosamfacilis.bmp?size=50x50&set=set1"},
    {"location":{"lat":38.7336567,"lng":-9.268126},"created":"3/15/2018","headline":"nunc donec quis orci eget orci vehicula condimentum","comment":"turpis sed ante vivamus tortor duis mattis egestas metus aenean fermentum donec ut mauris eget massa tempor","title":"Realigned holistic alliance","picture":"https://robohash.org/teneturvitaesed.bmp?size=50x50&set=set1"},
    {"location":{"lat":20.1591959,"lng":-100.5064114},"created":"3/13/2018","headline":"pretium iaculis diam erat fermentum justo nec condimentum neque","comment":"nulla nisl nunc nisl duis bibendum felis sed interdum venenatis turpis","title":"Object-based stable local area network","picture":"https://robohash.org/harumautemfuga.jpg?size=50x50&set=set1"},
    {"location":{"lat":-34.7383716,"lng":-58.571838},"created":"11/11/2018","headline":"sollicitudin vitae consectetuer eget rutrum at","comment":"fermentum justo nec condimentum neque sapien placerat ante nulla justo aliquam quis turpis","title":"Multi-lateral radical service-desk","picture":"https://robohash.org/autsedfacilis.png?size=50x50&set=set1"},
    {"location":{"lat":25.822349,"lng":107.322323},"created":"10/12/2018","headline":"montes nascetur ridiculus mus etiam vel augue vestibulum rutrum","comment":"et ultrices posuere cubilia curae nulla dapibus dolor vel est donec odio","title":"Operative discrete success","picture":"https://robohash.org/quaeanimisunt.bmp?size=50x50&set=set1"},
    {"location":{"lat":25.84999,"lng":115.400234},"created":"11/5/2018","headline":"fusce congue diam id ornare imperdiet sapien","comment":"sit amet erat nulla tempus vivamus in felis eu sapien cursus vestibulum proin eu mi","title":"Profit-focused maximized functionalities","picture":"https://robohash.org/ipsumdolorumquia.bmp?size=50x50&set=set1"},
    {"location":{"lat":39.21485,"lng":113.364619},"created":"2/18/2018","headline":"nibh quisque id justo sit amet sapien dignissim vestibulum","comment":"nisi volutpat eleifend donec ut dolor morbi vel lectus in","title":"Seamless background concept","picture":"https://robohash.org/eamaioresnon.png?size=50x50&set=set1"},
    {"location":{"lat":45.3095043,"lng":-74.0590779},"created":"1/10/2019","headline":"iaculis diam erat fermentum justo","comment":"lectus in est risus auctor sed tristique in tempus sit amet sem","title":"Automated asymmetric project","picture":"https://robohash.org/consequaturnihilomnis.jpg?size=50x50&set=set1"},
    {"location":{"lat":41.468342,"lng":115.437602},"created":"1/9/2019","headline":"nonummy integer non velit donec diam neque vestibulum eget vulputate","comment":"magna vulputate luctus cum sociis natoque penatibus et magnis dis parturient montes nascetur ridiculus mus vivamus vestibulum sagittis","title":"Customizable dynamic service-desk","picture":"https://robohash.org/magniidquibusdam.bmp?size=50x50&set=set1"},
    {"location":{"lat":26.394403,"lng":111.314117},"created":"8/1/2018","headline":"non quam nec dui luctus rutrum nulla tellus","comment":"vestibulum ante ipsum primis in faucibus orci luctus et ultrices posuere cubilia curae nulla dapibus dolor vel est donec","title":"Reverse-engineered actuating superstructure","picture":"https://robohash.org/estdolorempraesentium.png?size=50x50&set=set1"},
    {"location":{"lat":-17.5582645,"lng":-49.5687416},"created":"5/19/2018","headline":"sed accumsan felis ut at dolor quis odio","comment":"sollicitudin vitae consectetuer eget rutrum at lorem integer tincidunt ante vel ipsum praesent blandit lacinia","title":"Phased cohesive matrices","picture":"https://robohash.org/inventoredelenitiodio.jpg?size=50x50&set=set1"},
    {"location":{"lat":39.3096699,"lng":-7.4404863},"created":"7/21/2018","headline":"aenean sit amet justo morbi ut odio cras mi pede","comment":"magna vestibulum aliquet ultrices erat tortor sollicitudin mi sit amet lobortis sapien sapien","title":"Exclusive intermediate paradigm","picture":"https://robohash.org/praesentiumdictaquis.png?size=50x50&set=set1"},
    {"location":{"lat":41.2600249,"lng":-8.6465086},"created":"6/5/2018","headline":"mi pede malesuada in imperdiet et commodo vulputate","comment":"lobortis est phasellus sit amet erat nulla tempus vivamus in felis eu sapien","title":"Centralized solution-oriented workforce","picture":"https://robohash.org/exercitationemnatusexplicabo.jpg?size=50x50&set=set1"},
    {"location":{"lat":59.884842,"lng":12.2993128},"created":"2/20/2018","headline":"turpis adipiscing lorem vitae mattis nibh ligula nec","comment":"neque sapien placerat ante nulla justo aliquam quis turpis eget","title":"Face to face analyzing emulation","picture":"https://robohash.org/consequaturnihilodio.bmp?size=50x50&set=set1"},
    {"location":{"lat":32.27226,"lng":108.12624},"created":"12/16/2018","headline":"cras mi pede malesuada in imperdiet et commodo","comment":"in faucibus orci luctus et ultrices posuere cubilia curae duis faucibus accumsan odio curabitur","title":"Managed eco-centric artificial intelligence","picture":"https://robohash.org/dolorarchitectoquis.jpg?size=50x50&set=set1"},
    {"location":{"lat":52.5307386,"lng":13.3844297},"created":"8/21/2018","headline":"maecenas ut massa quis augue luctus tincidunt nulla mollis molestie","comment":"justo etiam pretium iaculis justo in hac habitasse platea dictumst etiam faucibus cursus urna ut","title":"Diverse motivating adapter","picture":"https://robohash.org/assumendaomnisconsequatur.bmp?size=50x50&set=set1"},
    {"location":{"lat":46.013979,"lng":83.663731},"created":"4/18/2018","headline":"varius integer ac leo pellentesque ultrices mattis odio donec vitae","comment":"sed accumsan felis ut at dolor quis odio consequat varius integer ac leo pellentesque ultrices","title":"Ergonomic zero tolerance extranet","picture":"https://robohash.org/autipsadolor.png?size=50x50&set=set1"},
    {"location":{"lat":65.8368628,"lng":24.0986491},"created":"5/10/2018","headline":"libero non mattis pulvinar nulla","comment":"vestibulum ante ipsum primis in faucibus orci luctus et ultrices posuere cubilia curae mauris","title":"Devolved bandwidth-monitored frame","picture":"https://robohash.org/doloresquiasit.bmp?size=50x50&set=set1"},
    {"location":{"lat":50.1617318,"lng":16.9473457},"created":"2/5/2018","headline":"nisl nunc rhoncus dui vel sem sed sagittis nam","comment":"turpis eget elit sodales scelerisque mauris sit amet eros suspendisse accumsan tortor quis","title":"Reverse-engineered asynchronous focus group","picture":"https://robohash.org/utestquos.jpg?size=50x50&set=set1"},
    {"location":{"lat":44.9993113,"lng":19.9820405},"created":"10/28/2018","headline":"sapien cursus vestibulum proin eu mi","comment":"volutpat quam pede lobortis ligula sit amet eleifend pede libero quis orci nullam molestie","title":"Assimilated logistical conglomeration","picture":"https://robohash.org/modiaccusamussed.jpg?size=50x50&set=set1"},
    {"location":{"lat":32.7074464,"lng":108.9391253},"created":"6/13/2018","headline":"in tempus sit amet sem fusce consequat","comment":"dui maecenas tristique est et tempus semper est quam pharetra magna ac consequat metus sapien ut nunc vestibulum ante","title":"Synergized uniform software","picture":"https://robohash.org/magnamexpeditaaut.jpg?size=50x50&set=set1"},
    {"location":{"lat":9.9436507,"lng":-84.0166951},"created":"12/18/2018","headline":"tincidunt eu felis fusce posuere felis","comment":"nulla eget eros elementum pellentesque quisque porta volutpat erat quisque erat eros viverra eget congue eget semper rutrum nulla nunc","title":"Function-based user-facing application","picture":"https://robohash.org/errorquamqui.bmp?size=50x50&set=set1"},
    {"location":{"lat":41.811979,"lng":126.918087},"created":"2/1/2018","headline":"semper rutrum nulla nunc purus phasellus in","comment":"in quam fringilla rhoncus mauris enim leo rhoncus sed vestibulum sit amet cursus id turpis integer aliquet massa id lobortis","title":"Vision-oriented object-oriented system engine","picture":"https://robohash.org/quiaetconsequatur.jpg?size=50x50&set=set1"},
    {"location":{"lat":16.4306671,"lng":100.1255164},"created":"9/12/2018","headline":"in porttitor pede justo eu massa donec dapibus","comment":"quis augue luctus tincidunt nulla mollis molestie lorem quisque ut erat curabitur gravida nisi","title":"Streamlined eco-centric website","picture":"https://robohash.org/officiisetaut.bmp?size=50x50&set=set1"},
    {"location":{"lat":50.6140977,"lng":3.1244315},"created":"12/22/2018","headline":"ornare imperdiet sapien urna pretium nisl ut volutpat","comment":"imperdiet et commodo vulputate justo in blandit ultrices enim lorem ipsum dolor sit amet consectetuer adipiscing elit proin interdum","title":"Face to face 5th generation matrices","picture":"https://robohash.org/quisquasipariatur.jpg?size=50x50&set=set1"},
    {"location":{"lat":49.9772098,"lng":1.6928443},"created":"7/15/2018","headline":"hac habitasse platea dictumst aliquam","comment":"vulputate elementum nullam varius nulla facilisi cras non velit nec nisi vulputate nonummy","title":"Realigned responsive success","picture":"https://robohash.org/autempraesentiumimpedit.jpg?size=50x50&set=set1"},
    {"location":{"lat":57.5842033,"lng":-3.8847449},"created":"12/13/2018","headline":"morbi vel lectus in quam fringilla rhoncus","comment":"iaculis congue vivamus metus arcu adipiscing molestie hendrerit at vulputate vitae nisl aenean lectus pellentesque eget nunc","title":"Fully-configurable directional projection","picture":"https://robohash.org/errorvelitdeserunt.bmp?size=50x50&set=set1"},
    {"location":{"lat":-32.2331548,"lng":-53.0866941},"created":"3/19/2018","headline":"in quam fringilla rhoncus mauris enim leo","comment":"turpis donec posuere metus vitae ipsum aliquam non mauris morbi non lectus aliquam","title":"Object-based impactful superstructure","picture":"https://robohash.org/namquidemodit.png?size=50x50&set=set1"},
    {"location":{"lat":25.9755686,"lng":89.6367458},"created":"7/20/2018","headline":"donec dapibus duis at velit eu est","comment":"ipsum dolor sit amet consectetuer adipiscing elit proin risus praesent lectus vestibulum quam","title":"Streamlined tangible orchestration","picture":"https://robohash.org/asperioresexplicabodolor.jpg?size=50x50&set=set1"},
    {"location":{"lat":-5.5169316,"lng":120.0202964},"created":"2/11/2018","headline":"lacinia nisi venenatis tristique fusce","comment":"id consequat in consequat ut nulla sed accumsan felis ut at dolor quis odio consequat varius integer","title":"Switchable global database","picture":"https://robohash.org/consequaturaccusamusperspiciatis.png?size=50x50&set=set1"},
    {"location":{"lat":10.8370155,"lng":4.7432763},"created":"2/24/2018","headline":"et ultrices posuere cubilia curae duis faucibus accumsan odio","comment":"aliquam non mauris morbi non lectus aliquam sit amet diam in magna bibendum imperdiet nullam orci","title":"Quality-focused background secured line","picture":"https://robohash.org/distinctionatuseum.jpg?size=50x50&set=set1"},
    {"location":{"lat":20.3231704,"lng":106.0140586},"created":"1/4/2019","headline":"eu mi nulla ac enim in tempor","comment":"ut odio cras mi pede malesuada in imperdiet et commodo vulputate justo in blandit ultrices enim lorem ipsum dolor","title":"Integrated heuristic process improvement","picture":"https://robohash.org/autsitlaboriosam.png?size=50x50&set=set1"},
    {"location":{"lat":59.7591906,"lng":30.4729492},"created":"5/3/2018","headline":"pretium nisl ut volutpat sapien arcu sed","comment":"mattis nibh ligula nec sem duis aliquam convallis nunc proin","title":"Advanced asymmetric core","picture":"https://robohash.org/impeditcommodivoluptatem.png?size=50x50&set=set1"},
    {"location":{"lat":-6.1373578,"lng":24.4886232},"created":"10/11/2018","headline":"amet lobortis sapien sapien non mi integer ac","comment":"mauris vulputate elementum nullam varius nulla facilisi cras non velit nec nisi vulputate nonummy maecenas tincidunt lacus at velit","title":"User-friendly global instruction set","picture":"https://robohash.org/aliquidodiovoluptatum.jpg?size=50x50&set=set1"},
    {"location":{"lat":38.2645,"lng":114.690007},"created":"9/1/2018","headline":"est lacinia nisi venenatis tristique fusce","comment":"eu orci mauris lacinia sapien quis libero nullam sit amet turpis elementum ligula vehicula consequat morbi a ipsum integer","title":"Expanded multi-state toolset","picture":"https://robohash.org/autsolutapraesentium.png?size=50x50&set=set1"},
    {"location":{"lat":-6.893751,"lng":112.4514977},"created":"10/3/2018","headline":"cubilia curae nulla dapibus dolor vel est","comment":"enim in tempor turpis nec euismod scelerisque quam turpis adipiscing lorem vitae mattis nibh ligula","title":"Profit-focused client-driven architecture","picture":"https://robohash.org/inciduntexpeditaea.png?size=50x50&set=set1"},
    {"location":{"lat":32.0302286,"lng":-6.7969224},"created":"5/12/2018","headline":"libero nam dui proin leo odio porttitor","comment":"rhoncus aliquet pulvinar sed nisl nunc rhoncus dui vel sem sed sagittis nam congue risus semper porta volutpat quam","title":"Reduced zero administration monitoring","picture":"https://robohash.org/officiadelenitiplaceat.jpg?size=50x50&set=set1"},
    {"location":{"lat":-22.1468812,"lng":-51.1376317},"created":"8/23/2018","headline":"condimentum curabitur in libero ut massa volutpat convallis morbi odio","comment":"ut nunc vestibulum ante ipsum primis in faucibus orci luctus et ultrices posuere cubilia curae mauris viverra diam vitae","title":"Stand-alone coherent leverage","picture":"https://robohash.org/recusandaenonaliquam.bmp?size=50x50&set=set1"},
    {"location":{"lat":34.7720133,"lng":32.4297369},"created":"9/4/2018","headline":"adipiscing molestie hendrerit at vulputate vitae nisl aenean","comment":"id consequat in consequat ut nulla sed accumsan felis ut at dolor quis odio consequat varius","title":"Secured background policy","picture":"https://robohash.org/voluptatesestsaepe.png?size=50x50&set=set1"},
    {"location":{"lat":29.584292,"lng":111.380014},"created":"8/25/2018","headline":"risus auctor sed tristique in tempus","comment":"dapibus duis at velit eu est congue elementum in hac habitasse platea dictumst morbi vestibulum","title":"Open-architected value-added local area network","picture":"https://robohash.org/omnisdebitisoccaecati.jpg?size=50x50&set=set1"},
    {"location":{"lat":59.2212515,"lng":17.9196922},"created":"10/9/2018","headline":"lobortis convallis tortor risus dapibus augue","comment":"diam in magna bibendum imperdiet nullam orci pede venenatis non sodales sed tincidunt eu felis fusce posuere felis sed lacus","title":"Switchable web-enabled framework","picture":"https://robohash.org/etquisfuga.png?size=50x50&set=set1"},
    {"location":{"lat":38.6345028,"lng":-9.0116724},"created":"7/14/2018","headline":"erat quisque erat eros viverra eget congue eget","comment":"tincidunt in leo maecenas pulvinar lobortis est phasellus sit amet erat nulla tempus vivamus in felis","title":"Stand-alone interactive approach","picture":"https://robohash.org/etetaccusantium.bmp?size=50x50&set=set1"},
    {"location":{"lat":-8.0344803,"lng":113.9655419},"created":"8/2/2018","headline":"amet eleifend pede libero quis orci nullam molestie nibh","comment":"ut massa quis augue luctus tincidunt nulla mollis molestie lorem quisque ut erat curabitur gravida nisi at","title":"Team-oriented local archive","picture":"https://robohash.org/inciduntdoloreeius.png?size=50x50&set=set1"},
    {"location":{"lat":58.1214207,"lng":12.6443729},"created":"10/27/2018","headline":"platea dictumst etiam faucibus cursus urna ut tellus","comment":"adipiscing lorem vitae mattis nibh ligula nec sem duis aliquam convallis","title":"Persevering local challenge","picture":"https://robohash.org/etplaceatvoluptatem.jpg?size=50x50&set=set1"},
    {"location":{"lat":24.705643,"lng":118.43196},"created":"1/14/2019","headline":"luctus et ultrices posuere cubilia","comment":"fringilla rhoncus mauris enim leo rhoncus sed vestibulum sit amet cursus id turpis integer","title":"Programmable empowering knowledge base","picture":"https://robohash.org/architectoaperiamcupiditate.jpg?size=50x50&set=set1"},
    {"location":{"lat":5.9630513,"lng":10.1591213},"created":"12/28/2018","headline":"justo nec condimentum neque sapien placerat ante nulla justo aliquam","comment":"donec vitae nisi nam ultrices libero non mattis pulvinar nulla pede","title":"Innovative didactic concept","picture":"https://robohash.org/culpaautemaspernatur.png?size=50x50&set=set1"},
    {"location":{"lat":37.943121,"lng":115.217658},"created":"1/7/2019","headline":"in purus eu magna vulputate luctus","comment":"massa quis augue luctus tincidunt nulla mollis molestie lorem quisque ut erat curabitur gravida nisi at nibh in","title":"Reactive maximized orchestration","picture":"https://robohash.org/cumquasfugiat.bmp?size=50x50&set=set1"},
    {"location":{"lat":39.95,"lng":-75.16},"created":"9/7/2018","headline":"suspendisse accumsan tortor quis turpis","comment":"tempus semper est quam pharetra magna ac consequat metus sapien ut nunc vestibulum ante ipsum primis in faucibus","title":"Networked asynchronous focus group","picture":"https://robohash.org/commodiabpossimus.png?size=50x50&set=set1"},
    {"location":{"lat":-7.0250344,"lng":113.5758261},"created":"12/12/2018","headline":"quis justo maecenas rhoncus aliquam lacus morbi","comment":"volutpat in congue etiam justo etiam pretium iaculis justo in hac","title":"User-friendly homogeneous support","picture":"https://robohash.org/porronobisnulla.jpg?size=50x50&set=set1"},
    {"location":{"lat":-7.3254723,"lng":108.207356},"created":"7/21/2018","headline":"natoque penatibus et magnis dis","comment":"neque aenean auctor gravida sem praesent id massa id nisl venenatis lacinia aenean sit amet","title":"Ergonomic global leverage","picture":"https://robohash.org/aperiamminusharum.jpg?size=50x50&set=set1"},
    {"location":{"lat":34.02,"lng":-118.5},"created":"9/12/2018","headline":"cubilia curae nulla dapibus dolor","comment":"neque duis bibendum morbi non quam nec dui luctus rutrum nulla tellus in sagittis dui vel nisl","title":"Organic local protocol","picture":"https://robohash.org/autoditomnis.bmp?size=50x50&set=set1"},
    {"location":{"lat":53.5484541,"lng":18.9455238},"created":"3/20/2018","headline":"vestibulum ante ipsum primis in faucibus","comment":"eros elementum pellentesque quisque porta volutpat erat quisque erat eros viverra eget congue eget semper rutrum nulla nunc purus phasellus","title":"Total client-driven website","picture":"https://robohash.org/quivitaeratione.jpg?size=50x50&set=set1"},
    {"location":{"lat":55.3767331,"lng":13.1451742},"created":"2/17/2018","headline":"sed tristique in tempus sit amet sem fusce consequat","comment":"consectetuer eget rutrum at lorem integer tincidunt ante vel ipsum praesent blandit lacinia erat vestibulum sed magna","title":"Open-architected 6th generation portal","picture":"https://robohash.org/consequaturquisautem.png?size=50x50&set=set1"},
    {"location":{"lat":-33.29717,"lng":23.50527},"created":"11/7/2018","headline":"mattis egestas metus aenean fermentum donec ut mauris","comment":"ante ipsum primis in faucibus orci luctus et ultrices posuere cubilia curae mauris viverra diam vitae quam suspendisse potenti","title":"Reactive didactic open system","picture":"https://robohash.org/accusantiumquidemest.jpg?size=50x50&set=set1"},
    {"location":{"lat":12.9447713,"lng":121.7248195},"created":"10/5/2018","headline":"amet nunc viverra dapibus nulla suscipit ligula in lacus curabitur","comment":"volutpat convallis morbi odio odio elementum eu interdum eu tincidunt in leo maecenas pulvinar lobortis est","title":"Seamless regional customer loyalty","picture":"https://robohash.org/estsequiid.png?size=50x50&set=set1"},
    {"location":{"lat":-28.8953831,"lng":27.9073244},"created":"12/25/2018","headline":"venenatis lacinia aenean sit amet justo morbi","comment":"sed interdum venenatis turpis enim blandit mi in porttitor pede justo eu massa donec dapibus duis","title":"Stand-alone leading edge complexity","picture":"https://robohash.org/ullamsapientecupiditate.bmp?size=50x50&set=set1"},
    {"location":{"lat":40.163127,"lng":116.638868},"created":"3/19/2018","headline":"tincidunt lacus at velit vivamus vel nulla eget","comment":"vitae nisl aenean lectus pellentesque eget nunc donec quis orci eget orci vehicula","title":"Diverse well-modulated contingency","picture":"https://robohash.org/placeatvelculpa.png?size=50x50&set=set1"},
    {"location":{"lat":27.087637,"lng":114.964696},"created":"6/10/2018","headline":"ut odio cras mi pede","comment":"praesent blandit lacinia erat vestibulum sed magna at nunc commodo placerat","title":"Re-engineered 24 hour array","picture":"https://robohash.org/dolornonnemo.png?size=50x50&set=set1"},
    {"location":{"lat":7.516342,"lng":123.345085},"created":"7/12/2018","headline":"proin at turpis a pede posuere nonummy integer non","comment":"diam cras pellentesque volutpat dui maecenas tristique est et tempus semper est quam pharetra","title":"Secured national project","picture":"https://robohash.org/temporanecessitatibuset.png?size=50x50&set=set1"},
    {"location":{"lat":-7.6387228,"lng":111.0460407},"created":"7/26/2018","headline":"adipiscing lorem vitae mattis nibh","comment":"at velit eu est congue elementum in hac habitasse platea dictumst morbi vestibulum velit id","title":"Mandatory homogeneous time-frame","picture":"https://robohash.org/utquasinventore.bmp?size=50x50&set=set1"},
    {"location":{"lat":4.9237913,"lng":-52.3205637},"created":"10/10/2018","headline":"libero nullam sit amet turpis elementum ligula vehicula consequat morbi","comment":"nulla pede ullamcorper augue a suscipit nulla elit ac nulla sed vel enim sit amet nunc viverra","title":"Profound eco-centric framework","picture":"https://robohash.org/reiciendisconsecteturlaudantium.png?size=50x50&set=set1"},
    {"location":{"lat":37.810661,"lng":120.758848},"created":"11/6/2018","headline":"id consequat in consequat ut","comment":"sapien cursus vestibulum proin eu mi nulla ac enim in tempor turpis nec euismod scelerisque quam","title":"Distributed dynamic adapter","picture":"https://robohash.org/quiaetnihil.jpg?size=50x50&set=set1"},
    {"location":{"lat":26.394403,"lng":111.314117},"created":"1/17/2019","headline":"lobortis sapien sapien non mi integer ac neque duis","comment":"sapien non mi integer ac neque duis bibendum morbi non quam nec dui luctus rutrum nulla tellus in","title":"Inverse background forecast","picture":"https://robohash.org/hicinillo.bmp?size=50x50&set=set1"},
    {"location":{"lat":-22.2275469,"lng":-48.7379527},"created":"6/19/2018","headline":"nec condimentum neque sapien placerat ante nulla justo","comment":"orci luctus et ultrices posuere cubilia curae donec pharetra magna vestibulum aliquet ultrices erat tortor sollicitudin mi sit amet lobortis","title":"Extended hybrid open system","picture":"https://robohash.org/nonquasquasi.bmp?size=50x50&set=set1"},
    {"location":{"lat":43.2916776,"lng":-0.3696612},"created":"1/5/2019","headline":"mauris sit amet eros suspendisse accumsan tortor quis turpis sed","comment":"pretium quis lectus suspendisse potenti in eleifend quam a odio in hac habitasse platea","title":"Integrated needs-based implementation","picture":"https://robohash.org/vitaereprehenderitdolorem.png?size=50x50&set=set1"},
    {"location":{"lat":54.9479093,"lng":83.1831386},"created":"6/17/2018","headline":"amet sem fusce consequat nulla nisl nunc","comment":"non lectus aliquam sit amet diam in magna bibendum imperdiet nullam orci pede venenatis","title":"Optional radical instruction set","picture":"https://robohash.org/sitconsequaturmaxime.bmp?size=50x50&set=set1"},
    {"location":{"lat":49.0998215,"lng":17.757483},"created":"5/20/2018","headline":"pretium quis lectus suspendisse potenti in eleifend","comment":"feugiat non pretium quis lectus suspendisse potenti in eleifend quam a odio in hac habitasse platea dictumst maecenas ut","title":"Synergistic grid-enabled capacity","picture":"https://robohash.org/veritatisinciduntpraesentium.bmp?size=50x50&set=set1"},
    {"location":{"lat":51.9034509,"lng":16.955476},"created":"3/7/2018","headline":"vitae quam suspendisse potenti nullam porttitor lacus at","comment":"amet diam in magna bibendum imperdiet nullam orci pede venenatis non sodales sed tincidunt eu felis fusce posuere felis sed","title":"Fully-configurable optimal orchestration","picture":"https://robohash.org/eteosrecusandae.bmp?size=50x50&set=set1"},
    {"location":{"lat":56.5953599,"lng":24.1989562},"created":"3/26/2018","headline":"augue vestibulum ante ipsum primis in faucibus","comment":"primis in faucibus orci luctus et ultrices posuere cubilia curae donec pharetra magna vestibulum","title":"Public-key intermediate core","picture":"https://robohash.org/quiaplaceatofficiis.jpg?size=50x50&set=set1"},
    {"location":{"lat":-34.0948167,"lng":-56.2202946},"created":"9/2/2018","headline":"eu massa donec dapibus duis","comment":"integer ac leo pellentesque ultrices mattis odio donec vitae nisi nam ultrices","title":"Profound methodical product","picture":"https://robohash.org/voluptatumquoomnis.jpg?size=50x50&set=set1"},
    {"location":{"lat":43.4945737,"lng":5.8978018},"created":"1/7/2019","headline":"quis justo maecenas rhoncus aliquam lacus morbi quis tortor id","comment":"rhoncus mauris enim leo rhoncus sed vestibulum sit amet cursus id turpis integer aliquet","title":"Phased hybrid data-warehouse","picture":"https://robohash.org/explicabodoloresest.bmp?size=50x50&set=set1"},
    {"location":{"lat":50.05998,"lng":21.8324138},"created":"5/31/2018","headline":"venenatis non sodales sed tincidunt eu","comment":"pede justo lacinia eget tincidunt eget tempus vel pede morbi porttitor lorem id ligula suspendisse ornare consequat","title":"Multi-channelled high-level throughput","picture":"https://robohash.org/iustoquossunt.png?size=50x50&set=set1"},
    {"location":{"lat":43.1839958,"lng":16.5992505},"created":"5/17/2018","headline":"tortor sollicitudin mi sit amet","comment":"quis turpis eget elit sodales scelerisque mauris sit amet eros suspendisse accumsan tortor quis","title":"Monitored impactful circuit","picture":"https://robohash.org/utestadipisci.jpg?size=50x50&set=set1"},
    {"location":{"lat":41.3532895,"lng":-8.2103678},"created":"12/29/2018","headline":"morbi sem mauris laoreet ut rhoncus","comment":"donec diam neque vestibulum eget vulputate ut ultrices vel augue vestibulum","title":"Right-sized impactful paradigm","picture":"https://robohash.org/solutalaboriosamnihil.jpg?size=50x50&set=set1"},
    {"location":{"lat":7.6949299,"lng":18.6264694},"created":"11/18/2018","headline":"donec dapibus duis at velit eu est congue","comment":"sapien cursus vestibulum proin eu mi nulla ac enim in tempor turpis nec euismod scelerisque quam turpis adipiscing lorem vitae","title":"Reduced responsive productivity","picture":"https://robohash.org/officiaadquia.png?size=50x50&set=set1"},
    {"location":{"lat":41.3191581,"lng":-8.3601548},"created":"7/5/2018","headline":"sapien cursus vestibulum proin eu mi nulla ac","comment":"ac est lacinia nisi venenatis tristique fusce congue diam id ornare imperdiet sapien urna pretium nisl ut volutpat sapien arcu","title":"Diverse static database","picture":"https://robohash.org/officiisconsequaturporro.jpg?size=50x50&set=set1"},
    {"location":{"lat":37.4701115,"lng":69.3808731},"created":"3/19/2018","headline":"neque sapien placerat ante nulla justo","comment":"felis fusce posuere felis sed lacus morbi sem mauris laoreet ut rhoncus","title":"Quality-focused attitude-oriented task-force","picture":"https://robohash.org/ininciduntet.bmp?size=50x50&set=set1"},
    {"location":{"lat":42.4338529,"lng":68.8129042},"created":"7/26/2018","headline":"in faucibus orci luctus et ultrices","comment":"quam sapien varius ut blandit non interdum in ante vestibulum ante ipsum primis","title":"Multi-layered client-server website","picture":"https://robohash.org/mollitiainblanditiis.bmp?size=50x50&set=set1"},
    {"location":{"lat":21.0598649,"lng":105.4943648},"created":"8/24/2018","headline":"accumsan tellus nisi eu orci mauris lacinia sapien","comment":"aliquet maecenas leo odio condimentum id luctus nec molestie sed justo pellentesque viverra","title":"Face to face systematic collaboration","picture":"https://robohash.org/delectusomnisconsequatur.png?size=50x50&set=set1"},
    {"location":{"lat":56.0467,"lng":59.6086},"created":"8/12/2018","headline":"ut erat id mauris vulputate elementum nullam","comment":"curabitur gravida nisi at nibh in hac habitasse platea dictumst aliquam","title":"Synergized responsive alliance","picture":"https://robohash.org/liberovelitdolores.png?size=50x50&set=set1"},
    {"location":{"lat":-8.4456045,"lng":114.1142079},"created":"2/24/2018","headline":"et magnis dis parturient montes nascetur ridiculus mus vivamus vestibulum","comment":"sapien in sapien iaculis congue vivamus metus arcu adipiscing molestie hendrerit at vulputate vitae nisl aenean lectus pellentesque eget nunc","title":"Diverse well-modulated throughput","picture":"https://robohash.org/occaecatiducimusveniam.bmp?size=50x50&set=set1"},
    {"location":{"lat":41.387384,"lng":128.1744945},"created":"2/8/2018","headline":"integer tincidunt ante vel ipsum praesent blandit","comment":"nulla tellus in sagittis dui vel nisl duis ac nibh fusce lacus purus aliquet at","title":"Fully-configurable 5th generation Graphical User Interface","picture":"https://robohash.org/animiautsunt.jpg?size=50x50&set=set1"},
    {"location":{"lat":46.4354039,"lng":141.859272},"created":"11/24/2018","headline":"nulla nunc purus phasellus in felis donec semper sapien","comment":"ut massa volutpat convallis morbi odio odio elementum eu interdum eu","title":"Grass-roots hybrid conglomeration","picture":"https://robohash.org/rerumconsequaturqui.jpg?size=50x50&set=set1"},
    {"location":{"lat":13.7246078,"lng":100.5148471},"created":"9/17/2018","headline":"praesent blandit nam nulla integer pede justo lacinia eget tincidunt","comment":"bibendum morbi non quam nec dui luctus rutrum nulla tellus in sagittis dui vel nisl duis ac nibh fusce","title":"Universal demand-driven productivity","picture":"https://robohash.org/dolorilloquasi.bmp?size=50x50&set=set1"},
    {"location":{"lat":"5.1053","lng":"73.07115"},"created":"7/23/2018","headline":"lacinia nisi venenatis tristique fusce congue","comment":"dui vel nisl duis ac nibh fusce lacus purus aliquet at feugiat non pretium quis lectus suspendisse potenti in","title":"Fully-configurable national groupware","picture":"https://robohash.org/odioassumendanemo.jpg?size=50x50&set=set1"},
    {"location":{"lat":-37.9595992,"lng":-57.5629395},"created":"6/29/2018","headline":"nulla sed accumsan felis ut at","comment":"at velit vivamus vel nulla eget eros elementum pellentesque quisque porta volutpat erat quisque erat eros viverra eget congue","title":"Multi-tiered optimal groupware","picture":"https://robohash.org/molestiaesimiliqueet.jpg?size=50x50&set=set1"},
    {"location":{"lat":40.0421073,"lng":116.4307166},"created":"3/8/2018","headline":"fermentum donec ut mauris eget massa tempor","comment":"duis mattis egestas metus aenean fermentum donec ut mauris eget massa tempor convallis","title":"Horizontal stable throughput","picture":"https://robohash.org/veritatissimiliqueautem.bmp?size=50x50&set=set1"},
    {"location":{"lat":21.857958,"lng":111.982232},"created":"10/18/2018","headline":"dolor quis odio consequat varius integer ac leo pellentesque","comment":"nisl ut volutpat sapien arcu sed augue aliquam erat volutpat in congue etiam","title":"Fundamental maximized workforce","picture":"https://robohash.org/odiomagnamnecessitatibus.jpg?size=50x50&set=set1"},
    {"location":{"lat":14.8904575,"lng":5.2579968},"created":"4/15/2018","headline":"habitasse platea dictumst maecenas ut","comment":"neque aenean auctor gravida sem praesent id massa id nisl venenatis lacinia","title":"Cross-group radical access","picture":"https://robohash.org/aperiamvitaequas.jpg?size=50x50&set=set1"},
    {"location":{"lat":41.728401,"lng":125.939697},"created":"3/24/2018","headline":"in magna bibendum imperdiet nullam orci","comment":"vel lectus in quam fringilla rhoncus mauris enim leo rhoncus sed vestibulum sit amet","title":"Face to face well-modulated project","picture":"https://robohash.org/doloribusipsumsint.png?size=50x50&set=set1"},
    {"location":{"lat":-26.8251371,"lng":-49.26952},"created":"9/15/2018","headline":"tincidunt eu felis fusce posuere","comment":"leo rhoncus sed vestibulum sit amet cursus id turpis integer aliquet massa id lobortis","title":"Seamless analyzing artificial intelligence","picture":"https://robohash.org/adreiciendisnulla.bmp?size=50x50&set=set1"},
    {"location":{"lat":9.9093596,"lng":-83.9959762},"created":"1/16/2019","headline":"nisl duis bibendum felis sed interdum venenatis turpis enim","comment":"morbi ut odio cras mi pede malesuada in imperdiet et commodo vulputate justo in blandit ultrices enim lorem","title":"Quality-focused systematic framework","picture":"https://robohash.org/nesciuntpariaturnam.jpg?size=50x50&set=set1"},
    {"location":{"lat":-7.7607338,"lng":112.1698476},"created":"8/8/2018","headline":"amet eros suspendisse accumsan tortor","comment":"ipsum primis in faucibus orci luctus et ultrices posuere cubilia curae duis faucibus accumsan odio curabitur","title":"Optimized demand-driven portal","picture":"https://robohash.org/nullaetconsequuntur.png?size=50x50&set=set1"},
    {"location":{"lat":34.8118351,"lng":126.3921664},"created":"12/11/2018","headline":"sollicitudin mi sit amet lobortis sapien sapien non mi integer","comment":"nonummy maecenas tincidunt lacus at velit vivamus vel nulla eget eros elementum pellentesque quisque porta volutpat erat quisque erat","title":"Persevering analyzing benchmark","picture":"https://robohash.org/eumdolordignissimos.png?size=50x50&set=set1"},
    {"location":{"lat":51.8971987,"lng":21.6149393},"created":"8/26/2018","headline":"sed lacus morbi sem mauris laoreet ut rhoncus aliquet pulvinar","comment":"odio consequat varius integer ac leo pellentesque ultrices mattis odio donec vitae nisi nam ultrices libero non mattis pulvinar nulla","title":"Multi-channelled systemic budgetary management","picture":"https://robohash.org/porroutad.png?size=50x50&set=set1"},
    {"location":{"lat":59.943312,"lng":30.3512378},"created":"3/11/2018","headline":"sit amet eros suspendisse accumsan tortor quis turpis","comment":"sociis natoque penatibus et magnis dis parturient montes nascetur ridiculus mus etiam","title":"Enterprise-wide heuristic internet solution","picture":"https://robohash.org/quoetcommodi.bmp?size=50x50&set=set1"},
    {"location":{"lat":13.369605,"lng":100.987203},"created":"2/14/2018","headline":"non pretium quis lectus suspendisse potenti in eleifend","comment":"quis turpis sed ante vivamus tortor duis mattis egestas metus aenean fermentum donec ut mauris eget massa tempor convallis nulla","title":"Virtual dynamic time-frame","picture":"https://robohash.org/eaveritatisneque.jpg?size=50x50&set=set1"},
    {"location":{"lat":43.785358,"lng":126.6858739},"created":"12/14/2018","headline":"mi in porttitor pede justo eu massa donec dapibus duis","comment":"massa tempor convallis nulla neque libero convallis eget eleifend luctus ultricies eu nibh quisque id justo sit","title":"Centralized next generation flexibility","picture":"https://robohash.org/estconsequatursit.bmp?size=50x50&set=set1"},
    {"location":{"lat":36.6759691,"lng":25.1059054},"created":"4/5/2018","headline":"mauris sit amet eros suspendisse","comment":"sem praesent id massa id nisl venenatis lacinia aenean sit amet justo morbi","title":"Versatile interactive model","picture":"https://robohash.org/earumeumquo.jpg?size=50x50&set=set1"},
    {"location":{"lat":41.4821084,"lng":-8.2776432},"created":"5/29/2018","headline":"mauris sit amet eros suspendisse accumsan tortor quis turpis","comment":"donec ut dolor morbi vel lectus in quam fringilla rhoncus mauris enim","title":"Innovative empowering standardization","picture":"https://robohash.org/iureapraesentium.jpg?size=50x50&set=set1"},
    {"location":{"lat":46.9554271,"lng":79.6785264},"created":"7/5/2018","headline":"erat vestibulum sed magna at nunc commodo placerat praesent blandit","comment":"vitae ipsum aliquam non mauris morbi non lectus aliquam sit amet diam in magna bibendum imperdiet nullam orci pede","title":"Open-source tangible circuit","picture":"https://robohash.org/vitaebeataedolores.bmp?size=50x50&set=set1"},
    {"location":{"lat":41.4358155,"lng":-8.3999197},"created":"6/16/2018","headline":"dignissim vestibulum vestibulum ante ipsum primis in faucibus orci luctus","comment":"et eros vestibulum ac est lacinia nisi venenatis tristique fusce congue diam id ornare imperdiet sapien urna pretium nisl","title":"Optimized solution-oriented function","picture":"https://robohash.org/vitaenecessitatibussoluta.jpg?size=50x50&set=set1"},
    {"location":{"lat":32.223502,"lng":118.905952},"created":"10/24/2018","headline":"non interdum in ante vestibulum","comment":"accumsan tortor quis turpis sed ante vivamus tortor duis mattis egestas metus aenean fermentum donec ut mauris eget massa tempor","title":"Adaptive real-time architecture","picture":"https://robohash.org/blanditiisvoluptatemlabore.png?size=50x50&set=set1"},
    {"location":{"lat":49.297491,"lng":125.217735},"created":"5/7/2018","headline":"rutrum nulla tellus in sagittis","comment":"imperdiet nullam orci pede venenatis non sodales sed tincidunt eu felis","title":"Team-oriented incremental matrices","picture":"https://robohash.org/fugiatetet.bmp?size=50x50&set=set1"},
    {"location":{"lat":60.3278292,"lng":54.3033879},"created":"5/22/2018","headline":"integer tincidunt ante vel ipsum praesent blandit lacinia erat vestibulum","comment":"sapien sapien non mi integer ac neque duis bibendum morbi non","title":"Pre-emptive bi-directional knowledge user","picture":"https://robohash.org/corporisdelectusculpa.jpg?size=50x50&set=set1"},
    {"location":{"lat":48.890054,"lng":2.2372792},"created":"5/7/2018","headline":"nullam orci pede venenatis non sodales sed tincidunt eu felis","comment":"sed magna at nunc commodo placerat praesent blandit nam nulla integer pede justo lacinia eget tincidunt eget tempus vel pede","title":"Multi-layered dynamic algorithm","picture":"https://robohash.org/molestiaenostrumdolorem.jpg?size=50x50&set=set1"},
    {"location":{"lat":39.8244606,"lng":-8.3790205},"created":"9/4/2018","headline":"vivamus tortor duis mattis egestas metus aenean","comment":"vestibulum ante ipsum primis in faucibus orci luctus et ultrices posuere cubilia curae mauris viverra diam vitae quam suspendisse potenti","title":"Profound exuding initiative","picture":"https://robohash.org/modipossimussaepe.png?size=50x50&set=set1"},
    {"location":{"lat":54.4808396,"lng":37.6941279},"created":"7/2/2018","headline":"malesuada in imperdiet et commodo vulputate justo in blandit","comment":"imperdiet nullam orci pede venenatis non sodales sed tincidunt eu","title":"Balanced leading edge orchestration","picture":"https://robohash.org/aliquamdoloresmolestiae.jpg?size=50x50&set=set1"},
    {"location":{"lat":40.6940299,"lng":19.5865629},"created":"8/24/2018","headline":"curae nulla dapibus dolor vel est donec","comment":"diam cras pellentesque volutpat dui maecenas tristique est et tempus semper est quam pharetra magna ac","title":"Triple-buffered logistical installation","picture":"https://robohash.org/suntfacilisnon.png?size=50x50&set=set1"},
    {"location":{"lat":"49.94912","lng":"18.4033"},"created":"2/9/2018","headline":"massa donec dapibus duis at velit eu est congue","comment":"tempor convallis nulla neque libero convallis eget eleifend luctus ultricies eu nibh","title":"Optional solution-oriented access","picture":"https://robohash.org/laborequamquia.png?size=50x50&set=set1"},
    {"location":{"lat":-8.1135472,"lng":112.3367573},"created":"4/21/2018","headline":"primis in faucibus orci luctus et ultrices","comment":"in lectus pellentesque at nulla suspendisse potenti cras in purus eu magna vulputate luctus cum sociis natoque penatibus et","title":"Optional dedicated implementation","picture":"https://robohash.org/seddelectuslabore.bmp?size=50x50&set=set1"},
    {"location":{"lat":-6.8380623,"lng":111.9701346},"created":"12/2/2018","headline":"at diam nam tristique tortor","comment":"id justo sit amet sapien dignissim vestibulum vestibulum ante ipsum primis in faucibus orci luctus et","title":"Profound 5th generation capacity","picture":"https://robohash.org/remautemveritatis.png?size=50x50&set=set1"},
    {"location":{"lat":50.9575733,"lng":15.7384571},"created":"6/9/2018","headline":"platea dictumst maecenas ut massa","comment":"nunc vestibulum ante ipsum primis in faucibus orci luctus et ultrices posuere cubilia curae mauris viverra diam vitae","title":"Horizontal intermediate complexity","picture":"https://robohash.org/laboreabquas.png?size=50x50&set=set1"},
    {"location":{"lat":"-9.9831","lng":"124.1849"},"created":"5/25/2018","headline":"amet sem fusce consequat nulla nisl nunc nisl","comment":"ultrices libero non mattis pulvinar nulla pede ullamcorper augue a suscipit","title":"Function-based hybrid complexity","picture":"https://robohash.org/similiquevoluptatemea.bmp?size=50x50&set=set1"},
    {"location":{"lat":39.0614002,"lng":-8.7269577},"created":"9/18/2018","headline":"leo rhoncus sed vestibulum sit amet cursus id turpis integer","comment":"a suscipit nulla elit ac nulla sed vel enim sit amet nunc viverra dapibus nulla suscipit ligula","title":"Versatile multi-state system engine","picture":"https://robohash.org/estquoaperiam.bmp?size=50x50&set=set1"},
    {"location":{"lat":43.1905743,"lng":3.0057099},"created":"2/27/2018","headline":"nonummy maecenas tincidunt lacus at velit","comment":"turpis eget elit sodales scelerisque mauris sit amet eros suspendisse accumsan tortor quis turpis sed ante vivamus","title":"Down-sized modular flexibility","picture":"https://robohash.org/etabsit.jpg?size=50x50&set=set1"},
    {"location":{"lat":51.6396221,"lng":14.999633},"created":"9/17/2018","headline":"pretium iaculis justo in hac habitasse platea dictumst etiam faucibus","comment":"vulputate luctus cum sociis natoque penatibus et magnis dis parturient montes","title":"Robust exuding local area network","picture":"https://robohash.org/laborumquiquis.bmp?size=50x50&set=set1"},
    {"location":{"lat":35.1341835,"lng":-89.8655563},"created":"7/2/2018","headline":"aliquet massa id lobortis convallis tortor","comment":"eleifend pede libero quis orci nullam molestie nibh in lectus","title":"Self-enabling high-level pricing structure","picture":"https://robohash.org/sedquibusdamquae.bmp?size=50x50&set=set1"},
    {"location":{"lat":55.9840531,"lng":37.1619979},"created":"3/11/2018","headline":"fusce lacus purus aliquet at feugiat non pretium quis lectus","comment":"aliquam quis turpis eget elit sodales scelerisque mauris sit amet eros suspendisse accumsan tortor quis turpis sed ante","title":"Re-engineered user-facing portal","picture":"https://robohash.org/quiaplaceatet.bmp?size=50x50&set=set1"},
    {"location":{"lat":51.1845319,"lng":-115.572212},"created":"3/12/2018","headline":"tristique est et tempus semper est quam pharetra","comment":"leo rhoncus sed vestibulum sit amet cursus id turpis integer aliquet massa id lobortis convallis tortor risus dapibus augue","title":"Networked tangible open system","picture":"https://robohash.org/autminimaearum.bmp?size=50x50&set=set1"},
    {"location":{"lat":36.123561,"lng":138.1062209},"created":"11/26/2018","headline":"est donec odio justo sollicitudin ut suscipit a feugiat","comment":"mauris enim leo rhoncus sed vestibulum sit amet cursus id turpis","title":"Customer-focused global model","picture":"https://robohash.org/debitisquisit.jpg?size=50x50&set=set1"},
    {"location":{"lat":34.8015007,"lng":135.5624945},"created":"3/8/2018","headline":"neque duis bibendum morbi non quam nec dui luctus","comment":"lorem ipsum dolor sit amet consectetuer adipiscing elit proin risus praesent lectus vestibulum quam","title":"Self-enabling 24/7 open architecture","picture":"https://robohash.org/atminimaexplicabo.png?size=50x50&set=set1"},
    {"location":{"lat":52.8996249,"lng":28.6709271},"created":"9/2/2018","headline":"sapien urna pretium nisl ut volutpat sapien arcu","comment":"non interdum in ante vestibulum ante ipsum primis in faucibus orci luctus et","title":"Virtual mobile website","picture":"https://robohash.org/voluptatemconsectetursapiente.png?size=50x50&set=set1"},
    {"location":{"lat":-7.633333,"lng":108.133333},"created":"7/18/2018","headline":"bibendum imperdiet nullam orci pede venenatis","comment":"integer a nibh in quis justo maecenas rhoncus aliquam lacus morbi quis tortor id nulla ultrices","title":"Devolved homogeneous knowledge base","picture":"https://robohash.org/veniamatbeatae.png?size=50x50&set=set1"},
    {"location":{"lat":23.992676,"lng":115.703598},"created":"9/23/2018","headline":"ultrices enim lorem ipsum dolor sit amet consectetuer adipiscing elit","comment":"felis sed lacus morbi sem mauris laoreet ut rhoncus aliquet pulvinar sed","title":"Advanced 3rd generation projection","picture":"https://robohash.org/easedquae.png?size=50x50&set=set1"},
    {"location":{"lat":23.841237,"lng":110.47479},"created":"11/9/2018","headline":"potenti nullam porttitor lacus at","comment":"augue aliquam erat volutpat in congue etiam justo etiam pretium iaculis justo in hac habitasse platea","title":"Focused hybrid array","picture":"https://robohash.org/teneturetvelit.png?size=50x50&set=set1"},
    {"location":{"lat":25.5527232,"lng":-80.3352364},"created":"1/17/2019","headline":"nec euismod scelerisque quam turpis","comment":"felis sed lacus morbi sem mauris laoreet ut rhoncus aliquet pulvinar sed","title":"Cross-group system-worthy website","picture":"https://robohash.org/doloremcommodised.jpg?size=50x50&set=set1"},
    {"location":{"lat":38.0426062,"lng":23.7536323},"created":"7/1/2018","headline":"tortor id nulla ultrices aliquet maecenas","comment":"est congue elementum in hac habitasse platea dictumst morbi vestibulum velit id pretium iaculis diam","title":"Quality-focused dynamic functionalities","picture":"https://robohash.org/quaeautrecusandae.bmp?size=50x50&set=set1"},
    {"location":{"lat":49.2752229,"lng":1.207968},"created":"11/1/2018","headline":"pede venenatis non sodales sed tincidunt eu felis","comment":"nulla ultrices aliquet maecenas leo odio condimentum id luctus nec","title":"Operative asynchronous policy","picture":"https://robohash.org/excepturiconsecteturnostrum.jpg?size=50x50&set=set1"},
    {"location":{"lat":53.4231032,"lng":-7.9428197},"created":"11/26/2018","headline":"aliquam convallis nunc proin at","comment":"at ipsum ac tellus semper interdum mauris ullamcorper purus sit amet nulla quisque arcu libero","title":"Secured reciprocal implementation","picture":"https://robohash.org/hicquosconsequatur.png?size=50x50&set=set1"},
    {"location":{"lat":6.7911741,"lng":-77.5504779},"created":"4/14/2018","headline":"condimentum id luctus nec molestie sed","comment":"hac habitasse platea dictumst etiam faucibus cursus urna ut tellus nulla ut erat id mauris vulputate","title":"Adaptive radical service-desk","picture":"https://robohash.org/illonatusprovident.jpg?size=50x50&set=set1"},
    {"location":{"lat":-33.2827093,"lng":-70.879328},"created":"8/4/2018","headline":"sapien cursus vestibulum proin eu","comment":"consequat metus sapien ut nunc vestibulum ante ipsum primis in faucibus orci","title":"Integrated 24/7 task-force","picture":"https://robohash.org/inquorem.bmp?size=50x50&set=set1"},
    {"location":{"lat":45.9974545,"lng":13.5270951},"created":"1/11/2019","headline":"luctus et ultrices posuere cubilia curae mauris","comment":"dictumst morbi vestibulum velit id pretium iaculis diam erat fermentum justo nec condimentum neque sapien placerat ante","title":"Grass-roots needs-based flexibility","picture":"https://robohash.org/asuntconsequuntur.bmp?size=50x50&set=set1"},
    {"location":{"lat":43.3667218,"lng":-72.3412362},"created":"3/1/2018","headline":"condimentum neque sapien placerat ante","comment":"et commodo vulputate justo in blandit ultrices enim lorem ipsum dolor sit amet consectetuer adipiscing elit proin interdum mauris non","title":"Proactive actuating model","picture":"https://robohash.org/perferendisquiavoluptatem.jpg?size=50x50&set=set1"},
    {"location":{"lat":-26.183307,"lng":27.6830843},"created":"10/27/2018","headline":"accumsan odio curabitur convallis duis","comment":"massa volutpat convallis morbi odio odio elementum eu interdum eu tincidunt","title":"Digitized context-sensitive protocol","picture":"https://robohash.org/delenitivoluptatemrepellendus.png?size=50x50&set=set1"},
    {"location":{"lat":25.3681203,"lng":68.3122196},"created":"12/7/2018","headline":"odio justo sollicitudin ut suscipit a feugiat et eros","comment":"hendrerit at vulputate vitae nisl aenean lectus pellentesque eget nunc donec quis orci eget orci vehicula condimentum curabitur in libero","title":"Fundamental disintermediate attitude","picture":"https://robohash.org/nobisaperiamlaboriosam.bmp?size=50x50&set=set1"},
    {"location":{"lat":-38.9459345,"lng":-68.113957},"created":"5/11/2018","headline":"laoreet ut rhoncus aliquet pulvinar sed nisl nunc rhoncus","comment":"tristique in tempus sit amet sem fusce consequat nulla nisl nunc nisl duis bibendum","title":"Function-based grid-enabled parallelism","picture":"https://robohash.org/voluptasvoluptasunde.bmp?size=50x50&set=set1"},
    {"location":{"lat":48.2465578,"lng":31.4060472},"created":"6/19/2018","headline":"cras pellentesque volutpat dui maecenas tristique est et","comment":"magnis dis parturient montes nascetur ridiculus mus etiam vel augue","title":"Innovative holistic superstructure","picture":"https://robohash.org/porroidqui.bmp?size=50x50&set=set1"},
    {"location":{"lat":42.5459635,"lng":24.8348261},"created":"4/5/2018","headline":"nonummy integer non velit donec diam neque vestibulum eget vulputate","comment":"sit amet turpis elementum ligula vehicula consequat morbi a ipsum integer a nibh in quis justo maecenas rhoncus aliquam lacus","title":"Ameliorated discrete alliance","picture":"https://robohash.org/necessitatibusetculpa.bmp?size=50x50&set=set1"},
    {"location":{"lat":25.8447931,"lng":51.2453739},"created":"7/19/2018","headline":"eros viverra eget congue eget semper rutrum nulla nunc purus","comment":"in libero ut massa volutpat convallis morbi odio odio elementum eu interdum eu tincidunt in leo maecenas","title":"Organized neutral productivity","picture":"https://robohash.org/voluptatesfacereautem.png?size=50x50&set=set1"},
    {"location":{"lat":49.8481991,"lng":13.9796068},"created":"6/23/2018","headline":"platea dictumst aliquam augue quam sollicitudin vitae","comment":"ac nulla sed vel enim sit amet nunc viverra dapibus nulla suscipit ligula in","title":"Public-key secondary instruction set","picture":"https://robohash.org/deseruntfugaet.bmp?size=50x50&set=set1"},
    {"location":{"lat":52.216745,"lng":0.1405602},"created":"10/26/2018","headline":"amet nulla quisque arcu libero rutrum ac lobortis vel dapibus","comment":"blandit mi in porttitor pede justo eu massa donec dapibus duis at velit eu est congue","title":"Organic local secured line","picture":"https://robohash.org/omnisnameum.bmp?size=50x50&set=set1"},
    {"location":{"lat":35.84609,"lng":102.031722},"created":"3/17/2018","headline":"mauris sit amet eros suspendisse accumsan tortor quis turpis sed","comment":"at ipsum ac tellus semper interdum mauris ullamcorper purus sit amet nulla quisque arcu libero rutrum ac lobortis vel dapibus","title":"Horizontal national budgetary management","picture":"https://robohash.org/quamitaquedolorem.jpg?size=50x50&set=set1"},
    {"location":{"lat":14.6329018,"lng":-90.9259787},"created":"10/2/2018","headline":"ut massa volutpat convallis morbi","comment":"nonummy maecenas tincidunt lacus at velit vivamus vel nulla eget eros elementum pellentesque quisque porta volutpat","title":"Fundamental multimedia budgetary management","picture":"https://robohash.org/consequaturfugaquo.bmp?size=50x50&set=set1"},
    {"location":{"lat":49.5474598,"lng":16.2620907},"created":"10/4/2018","headline":"justo etiam pretium iaculis justo in hac","comment":"luctus et ultrices posuere cubilia curae nulla dapibus dolor vel est donec odio justo sollicitudin","title":"Fully-configurable foreground productivity","picture":"https://robohash.org/necessitatibusrerumqui.png?size=50x50&set=set1"},
    {"location":{"lat":-17.9659326,"lng":-49.6503106},"created":"5/3/2018","headline":"neque sapien placerat ante nulla justo aliquam quis turpis eget","comment":"posuere cubilia curae mauris viverra diam vitae quam suspendisse potenti nullam porttitor lacus at turpis","title":"Ergonomic motivating archive","picture":"https://robohash.org/enimeligendieum.jpg?size=50x50&set=set1"},
    {"location":{"lat":44.6677818,"lng":19.6519918},"created":"9/3/2018","headline":"ultrices libero non mattis pulvinar nulla pede ullamcorper augue a","comment":"justo sollicitudin ut suscipit a feugiat et eros vestibulum ac est lacinia nisi venenatis tristique fusce congue","title":"Profound multimedia collaboration","picture":"https://robohash.org/accusamussedaut.jpg?size=50x50&set=set1"},
    {"location":{"lat":30.815101,"lng":103.560075},"created":"9/23/2018","headline":"pede malesuada in imperdiet et commodo vulputate","comment":"aliquam lacus morbi quis tortor id nulla ultrices aliquet maecenas leo odio condimentum id luctus nec","title":"Configurable tertiary ability","picture":"https://robohash.org/molestiaeautalias.bmp?size=50x50&set=set1"},
    {"location":{"lat":53.5281012,"lng":16.0186245},"created":"11/4/2018","headline":"dolor quis odio consequat varius integer ac leo","comment":"aenean fermentum donec ut mauris eget massa tempor convallis nulla neque libero convallis eget eleifend luctus ultricies","title":"Pre-emptive logistical local area network","picture":"https://robohash.org/voluptatumquisquo.png?size=50x50&set=set1"},
    {"location":{"lat":51.7111719,"lng":17.993399},"created":"4/10/2018","headline":"consequat in consequat ut nulla sed accumsan felis ut","comment":"aliquet maecenas leo odio condimentum id luctus nec molestie sed justo pellentesque viverra pede ac diam","title":"Up-sized disintermediate superstructure","picture":"https://robohash.org/illumvoluptasut.bmp?size=50x50&set=set1"},
    {"location":{"lat":-10.218,"lng":-77.064774},"created":"7/24/2018","headline":"ultrices posuere cubilia curae mauris viverra diam vitae","comment":"duis consequat dui nec nisi volutpat eleifend donec ut dolor morbi vel lectus in quam fringilla rhoncus mauris enim","title":"Balanced content-based benchmark","picture":"https://robohash.org/sintpossimusaliquam.jpg?size=50x50&set=set1"},
    {"location":{"lat":-24.2449065,"lng":-65.2605303},"created":"5/7/2018","headline":"elit ac nulla sed vel enim sit amet nunc viverra","comment":"ultrices libero non mattis pulvinar nulla pede ullamcorper augue a suscipit nulla elit ac nulla","title":"Business-focused even-keeled framework","picture":"https://robohash.org/asperioresdoloremquereprehenderit.bmp?size=50x50&set=set1"},
    {"location":{"lat":54.5979325,"lng":22.6027073},"created":"11/27/2018","headline":"magnis dis parturient montes nascetur ridiculus mus","comment":"libero nam dui proin leo odio porttitor id consequat in consequat ut","title":"Open-source reciprocal alliance","picture":"https://robohash.org/quammaximeut.jpg?size=50x50&set=set1"},
    {"location":{"lat":14.5570389,"lng":121.017148},"created":"2/13/2018","headline":"congue risus semper porta volutpat quam pede","comment":"morbi odio odio elementum eu interdum eu tincidunt in leo maecenas pulvinar lobortis est","title":"Organized leading edge array","picture":"https://robohash.org/voluptateabrem.jpg?size=50x50&set=set1"},
    {"location":{"lat":31.820591,"lng":117.227219},"created":"12/21/2018","headline":"ligula in lacus curabitur at","comment":"hac habitasse platea dictumst etiam faucibus cursus urna ut tellus nulla ut","title":"Streamlined maximized throughput","picture":"https://robohash.org/harumetut.bmp?size=50x50&set=set1"},
    {"location":{"lat":35.9032997,"lng":36.733459},"created":"7/23/2018","headline":"lectus vestibulum quam sapien varius ut blandit non","comment":"ipsum integer a nibh in quis justo maecenas rhoncus aliquam lacus morbi quis tortor id nulla ultrices aliquet maecenas","title":"Seamless directional ability","picture":"https://robohash.org/dolorumdistinctioeum.png?size=50x50&set=set1"},
    {"location":{"lat":51.7354275,"lng":55.0063279},"created":"7/7/2018","headline":"ultrices posuere cubilia curae duis faucibus accumsan odio curabitur","comment":"maecenas tincidunt lacus at velit vivamus vel nulla eget eros elementum pellentesque quisque porta volutpat","title":"Digitized zero administration product","picture":"https://robohash.org/rerumquaerattenetur.jpg?size=50x50&set=set1"},
    {"location":{"lat":49.8693962,"lng":18.7571935},"created":"6/22/2018","headline":"erat eros viverra eget congue eget semper","comment":"sem sed sagittis nam congue risus semper porta volutpat quam pede lobortis ligula sit amet eleifend","title":"Fully-configurable grid-enabled hierarchy","picture":"https://robohash.org/isteconsequaturillo.jpg?size=50x50&set=set1"},
    {"location":{"lat":29.5769271,"lng":-9.0267076},"created":"9/6/2018","headline":"nulla justo aliquam quis turpis eget elit sodales","comment":"auctor sed tristique in tempus sit amet sem fusce consequat nulla nisl nunc","title":"Future-proofed 4th generation support","picture":"https://robohash.org/eaquecommodivoluptas.png?size=50x50&set=set1"},
    {"location":{"lat":44.5284238,"lng":15.0728705},"created":"6/23/2018","headline":"odio donec vitae nisi nam","comment":"nulla facilisi cras non velit nec nisi vulputate nonummy maecenas tincidunt lacus at","title":"Realigned motivating archive","picture":"https://robohash.org/etatdicta.png?size=50x50&set=set1"},
    {"location":{"lat":42.5387912,"lng":26.6831949},"created":"6/16/2018","headline":"in ante vestibulum ante ipsum primis in faucibus","comment":"est risus auctor sed tristique in tempus sit amet sem fusce consequat nulla nisl nunc nisl duis bibendum felis","title":"Future-proofed mobile middleware","picture":"https://robohash.org/voluptasmolestiaseum.bmp?size=50x50&set=set1"},
    {"location":{"lat":-8.39427,"lng":116.3426552},"created":"11/25/2018","headline":"amet turpis elementum ligula vehicula consequat morbi a ipsum","comment":"gravida sem praesent id massa id nisl venenatis lacinia aenean sit","title":"Organized fresh-thinking capability","picture":"https://robohash.org/voluptasautqui.bmp?size=50x50&set=set1"},
    {"location":{"lat":14.7247931,"lng":121.0315758},"created":"6/28/2018","headline":"amet diam in magna bibendum imperdiet nullam orci","comment":"erat tortor sollicitudin mi sit amet lobortis sapien sapien non","title":"Fundamental bi-directional application","picture":"https://robohash.org/maximeautest.png?size=50x50&set=set1"},
    {"location":{"lat":39.629968,"lng":115.08775},"created":"3/31/2018","headline":"blandit lacinia erat vestibulum sed","comment":"amet eleifend pede libero quis orci nullam molestie nibh in lectus pellentesque at nulla suspendisse potenti cras in","title":"Customer-focused contextually-based initiative","picture":"https://robohash.org/quibusdamestaut.bmp?size=50x50&set=set1"},
    {"location":{"lat":"45.1","lng":"120.35"},"created":"8/3/2018","headline":"bibendum felis sed interdum venenatis turpis enim","comment":"blandit ultrices enim lorem ipsum dolor sit amet consectetuer adipiscing elit","title":"Implemented client-server framework","picture":"https://robohash.org/similiquevelitdolor.bmp?size=50x50&set=set1"},
    {"location":{"lat":18.8086564,"lng":-99.2037508},"created":"12/2/2018","headline":"mauris lacinia sapien quis libero nullam sit","comment":"integer a nibh in quis justo maecenas rhoncus aliquam lacus morbi quis tortor id nulla ultrices aliquet maecenas","title":"Grass-roots zero defect utilisation","picture":"https://robohash.org/nametut.bmp?size=50x50&set=set1"},
    {"location":{"lat":17.9567646,"lng":-102.1943485},"created":"10/12/2018","headline":"ante ipsum primis in faucibus orci luctus et ultrices posuere","comment":"est congue elementum in hac habitasse platea dictumst morbi vestibulum velit id pretium iaculis diam erat fermentum justo","title":"Multi-channelled contextually-based leverage","picture":"https://robohash.org/laboreetaut.png?size=50x50&set=set1"},
    {"location":{"lat":22.826877,"lng":107.840624},"created":"11/2/2018","headline":"semper interdum mauris ullamcorper purus sit","comment":"convallis eget eleifend luctus ultricies eu nibh quisque id justo sit amet sapien dignissim vestibulum vestibulum ante","title":"Multi-layered solution-oriented structure","picture":"https://robohash.org/doloremqueevenietnon.bmp?size=50x50&set=set1"},
    {"location":{"lat":16.783695,"lng":106.9830865},"created":"3/24/2018","headline":"non mi integer ac neque duis bibendum morbi","comment":"risus auctor sed tristique in tempus sit amet sem fusce consequat nulla","title":"Enhanced bandwidth-monitored infrastructure","picture":"https://robohash.org/praesentiumreiciendisducimus.jpg?size=50x50&set=set1"},
    {"location":{"lat":9.85914,"lng":98.5940814},"created":"4/10/2018","headline":"pellentesque viverra pede ac diam cras","comment":"maecenas tristique est et tempus semper est quam pharetra magna ac consequat metus sapien ut nunc vestibulum ante","title":"Ergonomic systematic solution","picture":"https://robohash.org/eavelitin.png?size=50x50&set=set1"},
    {"location":{"lat":6.658614,"lng":-72.733351},"created":"11/4/2018","headline":"nec euismod scelerisque quam turpis adipiscing lorem vitae mattis","comment":"volutpat convallis morbi odio odio elementum eu interdum eu tincidunt in leo","title":"Multi-tiered 4th generation model","picture":"https://robohash.org/earumperspiciatismaxime.png?size=50x50&set=set1"},
    {"location":{"lat":47.5196602,"lng":91.631072},"created":"9/29/2018","headline":"luctus et ultrices posuere cubilia curae nulla dapibus dolor vel","comment":"turpis enim blandit mi in porttitor pede justo eu massa donec dapibus","title":"User-friendly background infrastructure","picture":"https://robohash.org/doloremquibusdamnostrum.png?size=50x50&set=set1"},
    {"location":{"lat":-8.0305818,"lng":-78.5341407},"created":"3/8/2018","headline":"nulla ac enim in tempor","comment":"at ipsum ac tellus semper interdum mauris ullamcorper purus sit amet nulla quisque","title":"Multi-tiered zero tolerance interface","picture":"https://robohash.org/modialiquamdignissimos.png?size=50x50&set=set1"},
    {"location":{"lat":31.7711077,"lng":119.9742793},"created":"3/10/2018","headline":"sit amet eros suspendisse accumsan tortor","comment":"quam sollicitudin vitae consectetuer eget rutrum at lorem integer tincidunt ante vel ipsum praesent","title":"Grass-roots dynamic Graphical User Interface","picture":"https://robohash.org/eautmolestias.jpg?size=50x50&set=set1"},
    {"location":{"lat":20.9455701,"lng":-101.4423451},"created":"12/16/2018","headline":"nibh quisque id justo sit amet sapien","comment":"enim sit amet nunc viverra dapibus nulla suscipit ligula in lacus","title":"Organized fault-tolerant synergy","picture":"https://robohash.org/quaeratlaudantiumdolorem.jpg?size=50x50&set=set1"},
    {"location":{"lat":6.6693528,"lng":9.1622211},"created":"8/18/2018","headline":"elementum pellentesque quisque porta volutpat","comment":"pede malesuada in imperdiet et commodo vulputate justo in blandit ultrices enim lorem ipsum dolor sit amet consectetuer adipiscing elit","title":"Re-engineered intangible pricing structure","picture":"https://robohash.org/maioresutiusto.png?size=50x50&set=set1"},
    {"location":{"lat":"10.16575","lng":"166.01022"},"created":"2/25/2018","headline":"pede posuere nonummy integer non velit","comment":"quis lectus suspendisse potenti in eleifend quam a odio in hac habitasse platea dictumst maecenas ut massa quis","title":"Automated asynchronous productivity","picture":"https://robohash.org/architectocumiure.png?size=50x50&set=set1"},
    {"location":{"lat":-22.7645391,"lng":-43.3996264},"created":"4/26/2018","headline":"tristique est et tempus semper est quam pharetra magna","comment":"ultrices erat tortor sollicitudin mi sit amet lobortis sapien sapien non mi integer ac neque duis bibendum morbi","title":"Realigned stable architecture","picture":"https://robohash.org/praesentiumvoluptatemqui.jpg?size=50x50&set=set1"},
    {"location":{"lat":37.9694565,"lng":138.2471977},"created":"5/16/2018","headline":"cras non velit nec nisi vulputate","comment":"mauris vulputate elementum nullam varius nulla facilisi cras non velit nec nisi vulputate nonummy maecenas tincidunt lacus at velit vivamus","title":"Reduced tangible local area network","picture":"https://robohash.org/nequevelitlaborum.png?size=50x50&set=set1"},
    {"location":{"lat":38.5603056,"lng":-121.4970294},"created":"12/4/2018","headline":"pretium iaculis diam erat fermentum justo nec condimentum","comment":"cras pellentesque volutpat dui maecenas tristique est et tempus semper est quam pharetra magna ac","title":"Ameliorated dynamic monitoring","picture":"https://robohash.org/cumquisequi.jpg?size=50x50&set=set1"},
    {"location":{"lat":50.4727367,"lng":15.3845968},"created":"7/11/2018","headline":"sapien ut nunc vestibulum ante ipsum primis in","comment":"ipsum ac tellus semper interdum mauris ullamcorper purus sit amet nulla quisque arcu libero rutrum","title":"Organic asynchronous workforce","picture":"https://robohash.org/culpaducimusvel.bmp?size=50x50&set=set1"},
    {"location":{"lat":53.806717,"lng":60.657365},"created":"8/4/2018","headline":"ut nulla sed accumsan felis ut at dolor quis odio","comment":"donec odio justo sollicitudin ut suscipit a feugiat et eros vestibulum ac est lacinia","title":"Versatile 24/7 process improvement","picture":"https://robohash.org/voluptasmollitiaminima.png?size=50x50&set=set1"},
    {"location":{"lat":29.278608,"lng":108.098075},"created":"10/15/2018","headline":"nec dui luctus rutrum nulla tellus in","comment":"vestibulum ante ipsum primis in faucibus orci luctus et ultrices posuere cubilia","title":"Organic value-added projection","picture":"https://robohash.org/officiacupiditateeum.jpg?size=50x50&set=set1"},
    {"location":{"lat":12.0545608,"lng":8.2732659},"created":"12/13/2018","headline":"curae duis faucibus accumsan odio curabitur","comment":"porttitor lorem id ligula suspendisse ornare consequat lectus in est risus auctor sed tristique","title":"Customer-focused local knowledge user","picture":"https://robohash.org/explicaboconsequunturnostrum.jpg?size=50x50&set=set1"},
    {"location":{"lat":48.507933,"lng":32.262317},"created":"3/8/2018","headline":"justo sollicitudin ut suscipit a","comment":"natoque penatibus et magnis dis parturient montes nascetur ridiculus mus vivamus vestibulum sagittis sapien cum","title":"Universal context-sensitive Graphical User Interface","picture":"https://robohash.org/utinventoreimpedit.jpg?size=50x50&set=set1"},
    {"location":{"lat":-24.1089373,"lng":-49.3356859},"created":"10/8/2018","headline":"ut massa volutpat convallis morbi odio odio elementum eu","comment":"nec dui luctus rutrum nulla tellus in sagittis dui vel nisl duis ac nibh fusce","title":"Horizontal well-modulated emulation","picture":"https://robohash.org/temporibusautaut.bmp?size=50x50&set=set1"},
    {"location":{"lat":40.974829,"lng":115.279249},"created":"9/4/2018","headline":"tortor risus dapibus augue vel accumsan tellus nisi","comment":"pellentesque viverra pede ac diam cras pellentesque volutpat dui maecenas tristique est et tempus semper est quam pharetra magna","title":"Organic encompassing support","picture":"https://robohash.org/sedetrecusandae.bmp?size=50x50&set=set1"},
    {"location":{"lat":28.947037,"lng":109.47991},"created":"10/16/2018","headline":"nullam sit amet turpis elementum ligula","comment":"tristique in tempus sit amet sem fusce consequat nulla nisl nunc nisl duis bibendum","title":"Sharable next generation secured line","picture":"https://robohash.org/molestiasminusvoluptate.png?size=50x50&set=set1"},
    {"location":{"lat":-2.2306406,"lng":-80.9001863},"created":"10/5/2018","headline":"in porttitor pede justo eu","comment":"phasellus in felis donec semper sapien a libero nam dui proin leo odio porttitor id consequat in consequat ut nulla","title":"Organized static product","picture":"https://robohash.org/sapientequipossimus.bmp?size=50x50&set=set1"},
    {"location":{"lat":40.288561,"lng":-8.4435315},"created":"1/2/2019","headline":"suspendisse potenti cras in purus eu magna vulputate luctus cum","comment":"habitasse platea dictumst morbi vestibulum velit id pretium iaculis diam erat fermentum justo nec condimentum neque","title":"Inverse explicit emulation","picture":"https://robohash.org/aliquamfuganumquam.png?size=50x50&set=set1"},
    {"location":{"lat":-13.0719408,"lng":-39.5099186},"created":"9/22/2018","headline":"neque duis bibendum morbi non quam nec dui luctus","comment":"in est risus auctor sed tristique in tempus sit amet sem","title":"Programmable zero tolerance concept","picture":"https://robohash.org/temporavoluptatibusarchitecto.jpg?size=50x50&set=set1"},
    {"location":{"lat":"50.46678","lng":"-104.41778"},"created":"7/16/2018","headline":"at turpis a pede posuere nonummy","comment":"cubilia curae duis faucibus accumsan odio curabitur convallis duis consequat dui nec nisi volutpat eleifend donec ut","title":"Advanced 3rd generation success","picture":"https://robohash.org/saepequiaaut.png?size=50x50&set=set1"},
    {"location":{"lat":49.4660029,"lng":1.0736574},"created":"10/13/2018","headline":"in tempus sit amet sem fusce consequat nulla nisl nunc","comment":"est congue elementum in hac habitasse platea dictumst morbi vestibulum velit id pretium iaculis diam erat fermentum justo","title":"Advanced non-volatile approach","picture":"https://robohash.org/debitisquoddolores.jpg?size=50x50&set=set1"},
    {"location":{"lat":32.3858505,"lng":35.6629038},"created":"1/5/2019","headline":"lobortis ligula sit amet eleifend pede libero quis","comment":"bibendum felis sed interdum venenatis turpis enim blandit mi in porttitor pede justo eu massa donec","title":"Inverse asymmetric interface","picture":"https://robohash.org/eosnumquamquod.png?size=50x50&set=set1"},
    {"location":{"lat":43.8533322,"lng":25.9522679},"created":"11/8/2018","headline":"eget vulputate ut ultrices vel","comment":"est phasellus sit amet erat nulla tempus vivamus in felis eu sapien cursus vestibulum proin eu mi nulla ac","title":"Assimilated mission-critical budgetary management","picture":"https://robohash.org/maioresnamdolor.bmp?size=50x50&set=set1"},
    {"location":{"lat":49.2211865,"lng":-68.1518275},"created":"12/16/2018","headline":"quisque arcu libero rutrum ac","comment":"erat tortor sollicitudin mi sit amet lobortis sapien sapien non mi","title":"Exclusive 6th generation firmware","picture":"https://robohash.org/cumquedelectuset.png?size=50x50&set=set1"},
    {"location":{"lat":48.8610504,"lng":2.3237084},"created":"8/16/2018","headline":"ante ipsum primis in faucibus","comment":"est lacinia nisi venenatis tristique fusce congue diam id ornare imperdiet sapien urna pretium nisl ut volutpat sapien","title":"Face to face attitude-oriented budgetary management","picture":"https://robohash.org/odioplaceataspernatur.bmp?size=50x50&set=set1"},
    {"location":{"lat":53.4249712,"lng":58.9688869},"created":"2/10/2018","headline":"orci nullam molestie nibh in lectus pellentesque at nulla","comment":"sagittis sapien cum sociis natoque penatibus et magnis dis parturient montes nascetur ridiculus mus","title":"Quality-focused client-driven installation","picture":"https://robohash.org/mollitiavoluptasest.jpg?size=50x50&set=set1"},
    {"location":{"lat":-21.9310093,"lng":-50.5069723},"created":"1/6/2019","headline":"posuere cubilia curae nulla dapibus dolor vel est donec","comment":"risus semper porta volutpat quam pede lobortis ligula sit amet eleifend pede libero quis orci nullam","title":"Team-oriented motivating secured line","picture":"https://robohash.org/facilislaudantiumillo.jpg?size=50x50&set=set1"},
    {"location":{"lat":7.8353579,"lng":4.9221114},"created":"11/6/2018","headline":"ipsum primis in faucibus orci luctus et ultrices","comment":"lobortis convallis tortor risus dapibus augue vel accumsan tellus nisi eu orci","title":"Ameliorated asymmetric Graphic Interface","picture":"https://robohash.org/quoslaboriosamfacere.jpg?size=50x50&set=set1"},
    {"location":{"lat":36.0456643,"lng":139.5598269},"created":"1/13/2019","headline":"amet eleifend pede libero quis orci nullam","comment":"quam suspendisse potenti nullam porttitor lacus at turpis donec posuere metus vitae ipsum aliquam non mauris","title":"Seamless clear-thinking moratorium","picture":"https://robohash.org/nonundeinventore.jpg?size=50x50&set=set1"},
    {"location":{"lat":49.0108843,"lng":25.8026512},"created":"8/25/2018","headline":"suspendisse accumsan tortor quis turpis sed ante vivamus tortor duis","comment":"est congue elementum in hac habitasse platea dictumst morbi vestibulum velit id pretium iaculis","title":"Public-key maximized focus group","picture":"https://robohash.org/quosinciduntenim.jpg?size=50x50&set=set1"},
    {"location":{"lat":-10.1082359,"lng":123.7727229},"created":"8/6/2018","headline":"nullam porttitor lacus at turpis donec posuere metus vitae ipsum","comment":"curae duis faucibus accumsan odio curabitur convallis duis consequat dui nec nisi volutpat eleifend donec ut dolor morbi","title":"Progressive context-sensitive paradigm","picture":"https://robohash.org/ipsumestex.png?size=50x50&set=set1"},
    {"location":{"lat":59.3283422,"lng":14.4819447},"created":"10/21/2018","headline":"posuere nonummy integer non velit donec diam","comment":"odio curabitur convallis duis consequat dui nec nisi volutpat eleifend donec ut dolor morbi","title":"Optional cohesive internet solution","picture":"https://robohash.org/minusanimicupiditate.jpg?size=50x50&set=set1"},
    {"location":{"lat":55.8951461,"lng":21.2626042},"created":"10/26/2018","headline":"ligula sit amet eleifend pede","comment":"sit amet eros suspendisse accumsan tortor quis turpis sed ante vivamus tortor duis mattis","title":"Right-sized zero administration middleware","picture":"https://robohash.org/hicliberosint.jpg?size=50x50&set=set1"},
    {"location":{"lat":14.657758,"lng":120.9888316},"created":"11/7/2018","headline":"laoreet ut rhoncus aliquet pulvinar","comment":"lectus aliquam sit amet diam in magna bibendum imperdiet nullam orci pede venenatis non sodales sed tincidunt eu","title":"Assimilated foreground database","picture":"https://robohash.org/voluptasvitaedolores.jpg?size=50x50&set=set1"},
    {"location":{"lat":5.329576,"lng":103.1369108},"created":"6/7/2018","headline":"nulla facilisi cras non velit nec nisi vulputate nonummy maecenas","comment":"luctus et ultrices posuere cubilia curae mauris viverra diam vitae quam","title":"Decentralized contextually-based middleware","picture":"https://robohash.org/veroanimiullam.png?size=50x50&set=set1"},
    {"location":{"lat":0.8554519,"lng":124.6192702},"created":"1/19/2019","headline":"mattis odio donec vitae nisi nam ultrices","comment":"erat tortor sollicitudin mi sit amet lobortis sapien sapien non mi integer ac neque duis bibendum morbi non quam nec","title":"Front-line 3rd generation hardware","picture":"https://robohash.org/minusmaximeipsam.bmp?size=50x50&set=set1"},
    {"location":{"lat":36.0336597,"lng":140.2064183},"created":"11/21/2018","headline":"duis aliquam convallis nunc proin","comment":"proin leo odio porttitor id consequat in consequat ut nulla sed accumsan felis","title":"Networked holistic array","picture":"https://robohash.org/idarchitectonemo.jpg?size=50x50&set=set1"},
    {"location":{"lat":-7.3356583,"lng":109.0798332},"created":"7/29/2018","headline":"tortor quis turpis sed ante vivamus tortor duis mattis","comment":"lobortis ligula sit amet eleifend pede libero quis orci nullam","title":"Universal heuristic process improvement","picture":"https://robohash.org/adipiscisedest.jpg?size=50x50&set=set1"},
    {"location":{"lat":"-8.6431","lng":"120.0041"},"created":"12/2/2018","headline":"quis justo maecenas rhoncus aliquam lacus morbi quis","comment":"sed tincidunt eu felis fusce posuere felis sed lacus morbi sem","title":"Fundamental zero defect data-warehouse","picture":"https://robohash.org/earumrerumdolores.jpg?size=50x50&set=set1"},
    {"location":{"lat":-34.7121944,"lng":-58.6285183},"created":"9/5/2018","headline":"eros elementum pellentesque quisque porta volutpat erat quisque","comment":"sit amet consectetuer adipiscing elit proin interdum mauris non ligula pellentesque ultrices phasellus id sapien in sapien","title":"Triple-buffered empowering hardware","picture":"https://robohash.org/debitiseumautem.png?size=50x50&set=set1"},
    {"location":{"lat":18.9452479,"lng":-70.3694594},"created":"6/26/2018","headline":"turpis elementum ligula vehicula consequat","comment":"cum sociis natoque penatibus et magnis dis parturient montes nascetur","title":"Front-line optimizing framework","picture":"https://robohash.org/quiapossimusnesciunt.bmp?size=50x50&set=set1"},
    {"location":{"lat":-14.2252203,"lng":-42.7734292},"created":"6/1/2018","headline":"cursus urna ut tellus nulla ut erat","comment":"turpis donec posuere metus vitae ipsum aliquam non mauris morbi non lectus aliquam sit amet diam in","title":"Fundamental logistical forecast","picture":"https://robohash.org/possimuserrorveniam.bmp?size=50x50&set=set1"},
    {"location":{"lat":37.6214616,"lng":140.4902763},"created":"2/24/2018","headline":"at turpis donec posuere metus vitae ipsum aliquam non","comment":"varius nulla facilisi cras non velit nec nisi vulputate nonummy maecenas tincidunt lacus at velit vivamus","title":"Automated asynchronous frame","picture":"https://robohash.org/possimusnostrumaliquam.bmp?size=50x50&set=set1"},
    {"location":{"lat":49.9805725,"lng":19.5512903},"created":"4/18/2018","headline":"dolor sit amet consectetuer adipiscing elit proin risus","comment":"dictumst aliquam augue quam sollicitudin vitae consectetuer eget rutrum at lorem integer tincidunt ante vel ipsum praesent blandit lacinia erat","title":"Robust grid-enabled collaboration","picture":"https://robohash.org/reprehenderitdoloresquaerat.bmp?size=50x50&set=set1"},
    {"location":{"lat":-6.3417512,"lng":-37.7465518},"created":"9/17/2018","headline":"vehicula condimentum curabitur in libero ut massa volutpat","comment":"ut massa quis augue luctus tincidunt nulla mollis molestie lorem quisque ut erat","title":"Object-based solution-oriented open architecture","picture":"https://robohash.org/utperferendisid.jpg?size=50x50&set=set1"},
    {"location":{"lat":40.1694467,"lng":-8.4784931},"created":"11/23/2018","headline":"nulla nisl nunc nisl duis bibendum felis sed interdum venenatis","comment":"scelerisque quam turpis adipiscing lorem vitae mattis nibh ligula nec sem duis aliquam convallis","title":"Expanded multi-state initiative","picture":"https://robohash.org/quomolestiaeut.jpg?size=50x50&set=set1"},
    {"location":{"lat":49.5234905,"lng":14.4280868},"created":"9/14/2018","headline":"ante ipsum primis in faucibus orci luctus et ultrices","comment":"turpis sed ante vivamus tortor duis mattis egestas metus aenean fermentum donec ut","title":"Networked tangible productivity","picture":"https://robohash.org/esseminuset.png?size=50x50&set=set1"},
    {"location":{"lat":28.112525,"lng":112.989854},"created":"11/2/2018","headline":"justo sollicitudin ut suscipit a feugiat et eros","comment":"quis turpis eget elit sodales scelerisque mauris sit amet eros","title":"Extended zero defect leverage","picture":"https://robohash.org/illumestporro.jpg?size=50x50&set=set1"},
    {"location":{"lat":45.8367628,"lng":5.2900333},"created":"11/18/2018","headline":"eget orci vehicula condimentum curabitur in libero ut massa","comment":"non velit donec diam neque vestibulum eget vulputate ut ultrices vel augue","title":"Innovative directional definition","picture":"https://robohash.org/abeatemporibus.jpg?size=50x50&set=set1"},
    {"location":{"lat":-7.9822189,"lng":111.4782661},"created":"5/22/2018","headline":"eleifend luctus ultricies eu nibh quisque id","comment":"pharetra magna vestibulum aliquet ultrices erat tortor sollicitudin mi sit amet lobortis sapien sapien non mi","title":"User-friendly mobile paradigm","picture":"https://robohash.org/accusantiumliberoexpedita.bmp?size=50x50&set=set1"},
    {"location":{"lat":-11.6110008,"lng":43.2853868},"created":"5/6/2018","headline":"eget semper rutrum nulla nunc","comment":"integer ac neque duis bibendum morbi non quam nec dui luctus rutrum nulla tellus in sagittis dui vel","title":"De-engineered client-server function","picture":"https://robohash.org/quisquamrerumerror.jpg?size=50x50&set=set1"},
    {"location":{"lat":-6.2056665,"lng":107.0251946},"created":"10/5/2018","headline":"ante nulla justo aliquam quis turpis","comment":"at turpis a pede posuere nonummy integer non velit donec diam neque vestibulum eget vulputate ut","title":"Synergized incremental time-frame","picture":"https://robohash.org/mollitialaboriosamexpedita.jpg?size=50x50&set=set1"},
    {"location":{"lat":31.8167901,"lng":73.9212283},"created":"6/19/2018","headline":"nisi eu orci mauris lacinia sapien quis","comment":"elementum nullam varius nulla facilisi cras non velit nec nisi vulputate nonummy maecenas tincidunt lacus at velit","title":"Monitored analyzing frame","picture":"https://robohash.org/sitvelitmagnam.png?size=50x50&set=set1"},
    {"location":{"lat":43.555403,"lng":1.503894},"created":"3/3/2018","headline":"interdum venenatis turpis enim blandit","comment":"donec quis orci eget orci vehicula condimentum curabitur in libero ut massa volutpat convallis","title":"Ergonomic optimal paradigm","picture":"https://robohash.org/quiaconsequunturofficiis.jpg?size=50x50&set=set1"},
    {"location":{"lat":52.6130327,"lng":38.9743917},"created":"6/15/2018","headline":"tristique in tempus sit amet sem","comment":"vulputate elementum nullam varius nulla facilisi cras non velit nec","title":"Enterprise-wide tangible superstructure","picture":"https://robohash.org/dolorconsequaturet.png?size=50x50&set=set1"},
    {"location":{"lat":42.5779358,"lng":43.4350888},"created":"5/30/2018","headline":"mattis odio donec vitae nisi nam ultrices libero","comment":"nibh quisque id justo sit amet sapien dignissim vestibulum vestibulum ante ipsum primis in faucibus orci luctus et ultrices posuere","title":"Robust analyzing contingency","picture":"https://robohash.org/nostrumquiaet.png?size=50x50&set=set1"},
    {"location":{"lat":38.5385334,"lng":-8.889642},