[{"location":{"lat":-34.6057351,"lng":-58.4882729},"created":"3/1/2018","headline":"eget rutrum at lorem integer","comment":"placerat ante nulla justo aliquam quis turpis eget elit sodales scelerisque mauris sit amet eros suspendisse accumsan tortor","title":"Triple-buffered systematic internet solution"},
{"location":{"lat":-1.145463,"lng":136.0396342},"created":"2/11/2018","headline":"et eros vestibulum ac est lacinia nisi venenatis tristique fusce","comment":"sapien cum sociis natoque penatibus et magnis dis parturient montes nascetur ridiculus mus etiam vel augue vestibulum rutrum rutrum","title":"Down-sized user-facing circuit"},
{"location":{"lat":-1.2468663,"lng":110.0926112},"created":"1/21/2019","headline":"molestie hendrerit at vulputate vitae nisl aenean lectus pellentesque eget","comment":"morbi sem mauris laoreet ut rhoncus aliquet pulvinar sed nisl","title":"Devolved disintermediate groupware"},
{"location":{"lat":30.864034,"lng":120.09953},"created":"6/9/2018","headline":"aliquet maecenas leo odio condimentum id luctus","comment":"imperdiet sapien urna pretium nisl ut volutpat sapien arcu sed augue aliquam","title":"Virtual zero defect customer loyalty"},
{"location":{"lat":50.8033215,"lng":44.5657928},"created":"3/11/2018","headline":"et ultrices posuere cubilia curae nulla dapibus dolor vel est","comment":"elit proin risus praesent lectus vestibulum quam sapien varius ut blandit non interdum in","title":"Implemented demand-driven concept"},
{"location":{"lat":22.8387258,"lng":112.3810562},"created":"12/7/2018","headline":"nulla justo aliquam quis turpis eget elit sodales","comment":"lacinia nisi venenatis tristique fusce congue diam id ornare imperdiet sapien","title":"Upgradable needs-based info-mediaries"},
{"location":{"lat":59.6715102,"lng":12.6108644},"created":"11/28/2018","headline":"erat id mauris vulputate elementum nullam varius nulla facilisi cras","comment":"at velit vivamus vel nulla eget eros elementum pellentesque quisque porta volutpat erat quisque erat eros","title":"Public-key foreground product"},
{"location":{"lat":-24.30724,"lng":29.51076},"created":"7/15/2018","headline":"sem fusce consequat nulla nisl nunc nisl duis","comment":"interdum mauris ullamcorper purus sit amet nulla quisque arcu libero rutrum ac lobortis vel dapibus at diam nam tristique tortor","title":"Optimized 5th generation Graphic Interface"},
{"location":{"lat":41.634449,"lng":22.4665446},"created":"3/19/2018","headline":"mi in porttitor pede justo eu massa donec dapibus duis","comment":"turpis elementum ligula vehicula consequat morbi a ipsum integer a","title":"Right-sized systematic support"},
{"location":{"lat":50.4163784,"lng":-105.5361463},"created":"7/13/2018","headline":"proin leo odio porttitor id consequat in consequat ut nulla","comment":"ac est lacinia nisi venenatis tristique fusce congue diam id","title":"Ergonomic needs-based portal"},
{"location":{"lat":33.157445,"lng":106.834805},"created":"1/18/2019","headline":"tortor id nulla ultrices aliquet","comment":"augue vel accumsan tellus nisi eu orci mauris lacinia sapien","title":"Polarised local support"},
{"location":{"lat":-8.792325,"lng":120.960602},"created":"3/28/2018","headline":"molestie nibh in lectus pellentesque","comment":"pede malesuada in imperdiet et commodo vulputate justo in blandit ultrices enim lorem ipsum dolor sit amet consectetuer","title":"Assimilated multimedia capacity"},
{"location":{"lat":45.0575208,"lng":20.1945283},"created":"1/11/2019","headline":"amet justo morbi ut odio cras mi","comment":"cum sociis natoque penatibus et magnis dis parturient montes nascetur ridiculus","title":"Operative bifurcated task-force"},
{"location":{"lat":44.7352635,"lng":4.5991033},"created":"12/31/2018","headline":"id ligula suspendisse ornare consequat lectus in est","comment":"morbi odio odio elementum eu interdum eu tincidunt in leo maecenas","title":"Optimized local strategy"},
{"location":{"lat":"14.5122","lng":"44.85358"},"created":"3/15/2018","headline":"dapibus nulla suscipit ligula in lacus curabitur at ipsum","comment":"odio curabitur convallis duis consequat dui nec nisi volutpat eleifend donec ut dolor morbi vel lectus in quam fringilla rhoncus","title":"Upgradable stable infrastructure"},
{"location":{"lat":11.8816553,"lng":-15.6177942},"created":"2/16/2018","headline":"felis sed lacus morbi sem","comment":"convallis eget eleifend luctus ultricies eu nibh quisque id justo sit amet sapien dignissim","title":"Intuitive context-sensitive time-frame"},
{"location":{"lat":39.893212,"lng":116.477516},"created":"1/7/2019","headline":"mus vivamus vestibulum sagittis sapien cum sociis natoque penatibus","comment":"tristique fusce congue diam id ornare imperdiet sapien urna pretium nisl ut volutpat sapien","title":"Polarised contextually-based extranet"},
{"location":{"lat":34.746611,"lng":113.625328},"created":"3/30/2018","headline":"ac consequat metus sapien ut nunc vestibulum ante ipsum","comment":"sed nisl nunc rhoncus dui vel sem sed sagittis nam congue risus semper porta","title":"Reverse-engineered optimizing capability"},
{"location":{"lat":59.3650479,"lng":17.9947004},"created":"8/6/2018","headline":"in tempus sit amet sem fusce consequat","comment":"ut tellus nulla ut erat id mauris vulputate elementum nullam varius","title":"Phased disintermediate installation"},
{"location":{"lat":-5.3825125,"lng":39.6969592},"created":"10/20/2018","headline":"semper sapien a libero nam dui","comment":"magnis dis parturient montes nascetur ridiculus mus etiam vel augue vestibulum rutrum rutrum neque","title":"Upgradable grid-enabled moderator"},
{"location":{"lat":9.9576111,"lng":-84.0284827},"created":"6/15/2018","headline":"volutpat erat quisque erat eros viverra eget congue eget semper","comment":"eros viverra eget congue eget semper rutrum nulla nunc purus phasellus in","title":"Fundamental reciprocal secured line"},
{"location":{"lat":14.0790588,"lng":100.5071143},"created":"3/8/2018","headline":"lorem vitae mattis nibh ligula nec sem duis aliquam","comment":"urna ut tellus nulla ut erat id mauris vulputate elementum nullam varius nulla facilisi","title":"Reactive solution-oriented architecture"},
{"location":{"lat":52.87728,"lng":15.52966},"created":"3/30/2018","headline":"a feugiat et eros vestibulum ac est lacinia","comment":"elementum nullam varius nulla facilisi cras non velit nec nisi vulputate nonummy","title":"Vision-oriented tangible adapter"},
{"location":{"lat":"-8.736","lng":"115.4945"},"created":"2/13/2018","headline":"amet diam in magna bibendum imperdiet nullam","comment":"tortor risus dapibus augue vel accumsan tellus nisi eu orci mauris lacinia sapien quis libero nullam","title":"Balanced empowering archive"},
{"location":{"lat":-6.3929812,"lng":-79.8226708},"created":"1/24/2019","headline":"mauris enim leo rhoncus sed vestibulum sit","comment":"ante vestibulum ante ipsum primis in faucibus orci luctus et ultrices posuere","title":"Optional well-modulated Graphical User Interface"},
{"location":{"lat":44.6380305,"lng":21.6773447},"created":"9/25/2018","headline":"mi nulla ac enim in tempor turpis nec","comment":"vel nisl duis ac nibh fusce lacus purus aliquet at","title":"Open-source foreground standardization"},
{"location":{"lat":38.0987438,"lng":23.8790184},"created":"9/21/2018","headline":"in sagittis dui vel nisl duis ac nibh","comment":"hac habitasse platea dictumst morbi vestibulum velit id pretium iaculis","title":"Grass-roots 3rd generation circuit"},
{"location":{"lat":-6.8840816,"lng":107.5413039},"created":"10/28/2018","headline":"sapien arcu sed augue aliquam erat volutpat in","comment":"hac habitasse platea dictumst morbi vestibulum velit id pretium iaculis diam","title":"Implemented fault-tolerant support"},
{"location":{"lat":38.42,"lng":-82.47},"created":"8/23/2018","headline":"mattis odio donec vitae nisi nam ultrices","comment":"massa donec dapibus duis at velit eu est congue elementum in hac habitasse platea dictumst morbi vestibulum velit id pretium","title":"Cross-platform transitional hub"},
{"location":{"lat":52.0097259,"lng":-8.337871},"created":"8/6/2018","headline":"potenti in eleifend quam a","comment":"eget eleifend luctus ultricies eu nibh quisque id justo sit amet sapien dignissim vestibulum vestibulum ante ipsum primis in faucibus","title":"Reduced bifurcated instruction set"},
{"location":{"lat":-29.2106317,"lng":30.0029572},"created":"3/4/2018","headline":"libero convallis eget eleifend luctus ultricies","comment":"rhoncus mauris enim leo rhoncus sed vestibulum sit amet cursus id turpis integer","title":"Triple-buffered attitude-oriented standardization"},
{"location":{"lat":-28.2588438,"lng":-53.5009992},"created":"9/19/2018","headline":"augue luctus tincidunt nulla mollis molestie","comment":"ligula nec sem duis aliquam convallis nunc proin at turpis a pede posuere nonummy integer non velit donec diam","title":"Configurable 24/7 policy"},
{"location":{"lat":32.9381361,"lng":119.5968536},"created":"10/12/2018","headline":"magna ac consequat metus sapien ut nunc vestibulum","comment":"sapien a libero nam dui proin leo odio porttitor id consequat in consequat ut nulla sed accumsan felis ut","title":"Synchronised regional instruction set"},
{"location":{"lat":-35.229035,"lng":173.94869},"created":"12/13/2018","headline":"lorem id ligula suspendisse ornare","comment":"id ornare imperdiet sapien urna pretium nisl ut volutpat sapien arcu sed augue aliquam erat volutpat in congue etiam justo","title":"Triple-buffered explicit collaboration"},
{"location":{"lat":40.6998888,"lng":-73.8076421},"created":"10/14/2018","headline":"quis lectus suspendisse potenti in eleifend","comment":"elit sodales scelerisque mauris sit amet eros suspendisse accumsan tortor quis","title":"Digitized zero defect intranet"},
{"location":{"lat":34.915946,"lng":98.209206},"created":"10/11/2018","headline":"in tempus sit amet sem fusce","comment":"lectus pellentesque eget nunc donec quis orci eget orci vehicula condimentum curabitur in","title":"Synchronised web-enabled firmware"},
{"location":{"lat":7.0841684,"lng":38.6188955},"created":"8/19/2018","headline":"lectus vestibulum quam sapien varius ut blandit non interdum in","comment":"lacus at turpis donec posuere metus vitae ipsum aliquam non mauris","title":"Digitized 24/7 access"},
{"location":{"lat":23.2462521,"lng":113.0030017},"created":"10/6/2018","headline":"nunc proin at turpis a pede posuere","comment":"vestibulum ante ipsum primis in faucibus orci luctus et ultrices posuere cubilia curae mauris viverra diam vitae quam suspendisse potenti","title":"Triple-buffered value-added access"},
{"location":{"lat":38.651124,"lng":-8.971304},"created":"11/29/2018","headline":"sapien urna pretium nisl ut volutpat sapien arcu sed augue","comment":"ut blandit non interdum in ante vestibulum ante ipsum primis in faucibus orci luctus et ultrices","title":"Sharable bottom-line standardization"},
{"location":{"lat":6.950203,"lng":80.638098},"created":"5/28/2018","headline":"vel enim sit amet nunc viverra dapibus","comment":"a pede posuere nonummy integer non velit donec diam neque vestibulum eget vulputate ut ultrices vel augue vestibulum ante","title":"Universal 24/7 intranet"},
{"location":{"lat":-6.3514294,"lng":105.9141793},"created":"11/11/2018","headline":"sed accumsan felis ut at dolor","comment":"posuere cubilia curae donec pharetra magna vestibulum aliquet ultrices erat tortor sollicitudin mi","title":"De-engineered secondary challenge"},
{"location":{"lat":46.8485653,"lng":34.3804247},"created":"9/18/2018","headline":"quisque id justo sit amet sapien dignissim vestibulum","comment":"eu sapien cursus vestibulum proin eu mi nulla ac enim in tempor turpis nec euismod","title":"Digitized value-added instruction set"},
{"location":{"lat":4.6096768,"lng":101.1064003},"created":"8/4/2018","headline":"eu est congue elementum in","comment":"nam dui proin leo odio porttitor id consequat in consequat ut nulla sed accumsan felis ut","title":"Pre-emptive methodical knowledge base"},
{"location":{"lat":4.7406191,"lng":7.0848063},"created":"6/10/2018","headline":"orci pede venenatis non sodales sed tincidunt eu felis fusce","comment":"porta volutpat quam pede lobortis ligula sit amet eleifend pede libero","title":"Compatible didactic model"},
{"location":{"lat":23.354192,"lng":112.908203},"created":"6/5/2018","headline":"duis bibendum morbi non quam nec","comment":"consequat lectus in est risus auctor sed tristique in tempus sit amet sem fusce consequat nulla nisl nunc","title":"Phased zero administration firmware"},
{"location":{"lat":21.1596123,"lng":-76.4736602},"created":"3/18/2018","headline":"aliquet massa id lobortis convallis tortor","comment":"turpis sed ante vivamus tortor duis mattis egestas metus aenean fermentum donec ut mauris","title":"Reverse-engineered asynchronous model"},
{"location":{"lat":29.66941,"lng":91.349867},"created":"9/7/2018","headline":"odio donec vitae nisi nam ultrices libero non mattis","comment":"amet eleifend pede libero quis orci nullam molestie nibh in lectus pellentesque","title":"Pre-emptive coherent synergy"},
{"location":{"lat":25.770509,"lng":113.014717},"created":"3/15/2018","headline":"dis parturient montes nascetur ridiculus mus etiam vel augue","comment":"suspendisse potenti cras in purus eu magna vulputate luctus cum sociis natoque penatibus et magnis","title":"Horizontal client-driven customer loyalty"},
{"location":{"lat":31.558471,"lng":118.844538},"created":"7/17/2018","headline":"lacus purus aliquet at feugiat non pretium quis","comment":"convallis nulla neque libero convallis eget eleifend luctus ultricies eu nibh","title":"Synchronised national process improvement"},
{"location":{"lat":53.3914918,"lng":142.9582995},"created":"8/17/2018","headline":"faucibus orci luctus et ultrices posuere","comment":"mi sit amet lobortis sapien sapien non mi integer ac","title":"Optimized heuristic projection"},
{"location":{"lat":-7.6044869,"lng":109.5068254},"created":"10/4/2018","headline":"sociis natoque penatibus et magnis dis parturient montes nascetur","comment":"quam nec dui luctus rutrum nulla tellus in sagittis dui vel nisl duis ac nibh fusce","title":"Profit-focused bi-directional capacity"},
{"location":{"lat":32.683659,"lng":112.196621},"created":"3/9/2018","headline":"in lectus pellentesque at nulla suspendisse","comment":"mi nulla ac enim in tempor turpis nec euismod scelerisque quam turpis adipiscing lorem vitae mattis","title":"Face to face non-volatile functionalities"},
{"location":{"lat":18.506048,"lng":110.037503},"created":"11/9/2018","headline":"ultricies eu nibh quisque id justo sit","comment":"posuere felis sed lacus morbi sem mauris laoreet ut rhoncus aliquet","title":"Synchronised 24 hour model"},
{"location":{"lat":-10.1496705,"lng":123.6539405},"created":"9/25/2018","headline":"luctus cum sociis natoque penatibus","comment":"ut mauris eget massa tempor convallis nulla neque libero convallis eget eleifend luctus ultricies eu nibh","title":"Multi-layered needs-based portal"},
{"location":{"lat":49.6819305,"lng":18.3673216},"created":"7/18/2018","headline":"nulla nisl nunc nisl duis bibendum felis sed","comment":"sed vel enim sit amet nunc viverra dapibus nulla suscipit ligula in lacus curabitur at ipsum ac","title":"Business-focused directional access"},
{"location":{"lat":43.4945737,"lng":5.8978018},"created":"6/24/2018","headline":"ac enim in tempor turpis nec euismod","comment":"hac habitasse platea dictumst maecenas ut massa quis augue luctus tincidunt nulla mollis molestie lorem quisque ut erat","title":"Multi-layered intangible intranet"},
{"location":{"lat":54.8737338,"lng":83.000494},"created":"7/4/2018","headline":"quis augue luctus tincidunt nulla mollis molestie lorem quisque","comment":"sed tristique in tempus sit amet sem fusce consequat nulla nisl nunc nisl duis bibendum felis sed interdum venenatis turpis","title":"Networked even-keeled internet solution"},
{"location":{"lat":46.1650664,"lng":-62.6480207},"created":"5/21/2018","headline":"nam nulla integer pede justo lacinia eget tincidunt","comment":"nisi nam ultrices libero non mattis pulvinar nulla pede ullamcorper augue a suscipit nulla elit ac nulla","title":"Multi-channelled bifurcated implementation"},
{"location":{"lat":8.8471213,"lng":7.8776023},"created":"7/8/2018","headline":"non velit donec diam neque vestibulum eget","comment":"turpis nec euismod scelerisque quam turpis adipiscing lorem vitae mattis nibh ligula nec sem duis aliquam convallis nunc","title":"Progressive hybrid intranet"},
{"location":{"lat":45.9469236,"lng":20.1591006},"created":"1/17/2019","headline":"lobortis ligula sit amet eleifend pede libero quis orci","comment":"nibh fusce lacus purus aliquet at feugiat non pretium quis lectus suspendisse potenti in","title":"Multi-layered needs-based task-force"},
{"location":{"lat":11.1138152,"lng":125.3867985},"created":"12/18/2018","headline":"velit vivamus vel nulla eget eros elementum pellentesque quisque","comment":"sapien cursus vestibulum proin eu mi nulla ac enim in tempor turpis nec euismod scelerisque quam turpis adipiscing lorem","title":"Fully-configurable tertiary architecture"},
{"location":{"lat":5.4827405,"lng":-73.4062342},"created":"4/15/2018","headline":"vitae consectetuer eget rutrum at lorem integer tincidunt ante vel","comment":"tortor id nulla ultrices aliquet maecenas leo odio condimentum id luctus nec molestie sed justo","title":"Compatible contextually-based support"},
{"location":{"lat":7.5958893,"lng":126.4361995},"created":"7/28/2018","headline":"justo maecenas rhoncus aliquam lacus morbi quis tortor id","comment":"ante ipsum primis in faucibus orci luctus et ultrices posuere cubilia curae donec pharetra magna vestibulum aliquet ultrices erat","title":"Visionary eco-centric model"},
{"location":{"lat":40.7489536,"lng":-8.6503807},"created":"8/14/2018","headline":"amet cursus id turpis integer","comment":"sapien cursus vestibulum proin eu mi nulla ac enim in tempor turpis nec euismod scelerisque quam turpis","title":"Multi-channelled upward-trending contingency"},
{"location":{"lat":47.1036608,"lng":0.3010983},"created":"3/11/2018","headline":"donec diam neque vestibulum eget vulputate ut ultrices","comment":"consequat nulla nisl nunc nisl duis bibendum felis sed interdum venenatis turpis enim blandit mi in porttitor","title":"Configurable fault-tolerant middleware"},
{"location":{"lat":32.323256,"lng":105.96282},"created":"7/27/2018","headline":"ut massa volutpat convallis morbi odio odio elementum eu interdum","comment":"amet turpis elementum ligula vehicula consequat morbi a ipsum integer a nibh in quis justo maecenas rhoncus aliquam lacus morbi","title":"Digitized client-server neural-net"},
{"location":{"lat":-33.240297,"lng":-56.016771},"created":"11/27/2018","headline":"mauris ullamcorper purus sit amet nulla","comment":"magnis dis parturient montes nascetur ridiculus mus vivamus vestibulum sagittis sapien cum sociis","title":"Function-based multimedia capability"},
{"location":{"lat":43.0007361,"lng":23.341193},"created":"7/20/2018","headline":"mauris laoreet ut rhoncus aliquet pulvinar sed nisl","comment":"cras pellentesque volutpat dui maecenas tristique est et tempus semper est quam pharetra magna ac consequat metus","title":"User-centric content-based contingency"},
{"location":{"lat":-7.4726134,"lng":112.6675398},"created":"5/17/2018","headline":"erat vestibulum sed magna at","comment":"congue vivamus metus arcu adipiscing molestie hendrerit at vulputate vitae","title":"Synchronised didactic concept"},
{"location":{"lat":46.7713478,"lng":3.8379578},"created":"8/13/2018","headline":"in lectus pellentesque at nulla suspendisse potenti cras in","comment":"ut odio cras mi pede malesuada in imperdiet et commodo vulputate justo in","title":"Automated 24/7 initiative"},
{"location":{"lat":-8.2010401,"lng":114.9739344},"created":"7/12/2018","headline":"maecenas ut massa quis augue luctus tincidunt nulla mollis molestie","comment":"non pretium quis lectus suspendisse potenti in eleifend quam a odio","title":"Versatile disintermediate firmware"},
{"location":{"lat":23.092389,"lng":113.657419},"created":"10/16/2018","headline":"lectus suspendisse potenti in eleifend quam a odio","comment":"aliquet pulvinar sed nisl nunc rhoncus dui vel sem sed sagittis nam congue risus","title":"Versatile 5th generation encryption"},
{"location":{"lat":-9.7262368,"lng":120.3608455},"created":"6/20/2018","headline":"neque libero convallis eget eleifend luctus ultricies eu nibh quisque","comment":"nibh in hac habitasse platea dictumst aliquam augue quam sollicitudin vitae consectetuer eget rutrum at lorem integer","title":"Self-enabling background pricing structure"},
{"location":{"lat":-7.2784402,"lng":106.6094916},"created":"12/26/2018","headline":"purus aliquet at feugiat non pretium quis lectus","comment":"nulla facilisi cras non velit nec nisi vulputate nonummy maecenas tincidunt lacus at velit","title":"Profound explicit service-desk"},
{"location":{"lat":10.6852616,"lng":43.946063},"created":"2/25/2018","headline":"tellus semper interdum mauris ullamcorper purus sit amet","comment":"ligula nec sem duis aliquam convallis nunc proin at turpis a pede posuere nonummy","title":"Balanced actuating process improvement"},
{"location":{"lat":27.894504,"lng":102.264449},"created":"9/28/2018","headline":"nulla mollis molestie lorem quisque ut erat curabitur gravida nisi","comment":"elementum ligula vehicula consequat morbi a ipsum integer a nibh in quis","title":"Re-contextualized heuristic process improvement"},
{"location":{"lat":33.288467,"lng":100.435347},"created":"6/22/2018","headline":"ante ipsum primis in faucibus","comment":"nulla tempus vivamus in felis eu sapien cursus vestibulum proin eu mi nulla ac enim","title":"Stand-alone heuristic help-desk"},
{"location":{"lat":45.3639886,"lng":5.5949365},"created":"7/5/2018","headline":"dictumst maecenas ut massa quis augue luctus tincidunt nulla mollis","comment":"mi pede malesuada in imperdiet et commodo vulputate justo in blandit ultrices enim lorem ipsum dolor sit amet consectetuer adipiscing","title":"Versatile 5th generation orchestration"},
{"location":{"lat":-20.5362627,"lng":47.2459749},"created":"3/27/2018","headline":"velit nec nisi vulputate nonummy","comment":"semper porta volutpat quam pede lobortis ligula sit amet eleifend pede libero quis orci nullam molestie nibh in lectus","title":"Persistent uniform neural-net"},
{"location":{"lat":-6.6,"lng":-78.016667},"created":"5/20/2018","headline":"in felis donec semper sapien a libero nam","comment":"auctor sed tristique in tempus sit amet sem fusce consequat","title":"Centralized attitude-oriented model"},
{"location":{"lat":28.445007,"lng":102.639837},"created":"12/1/2018","headline":"penatibus et magnis dis parturient montes nascetur","comment":"sit amet eros suspendisse accumsan tortor quis turpis sed ante vivamus tortor duis mattis egestas metus","title":"Decentralized real-time function"},
{"location":{"lat":34.6372754,"lng":134.0105824},"created":"6/22/2018","headline":"dui luctus rutrum nulla tellus in sagittis dui vel","comment":"vel pede morbi porttitor lorem id ligula suspendisse ornare consequat lectus in","title":"Reverse-engineered dynamic monitoring"},
{"location":{"lat":44.351935,"lng":-87.8445954},"created":"7/6/2018","headline":"sapien non mi integer ac neque","comment":"pellentesque ultrices mattis odio donec vitae nisi nam ultrices libero non mattis pulvinar nulla","title":"Integrated local neural-net"},
{"location":{"lat":38.569555,"lng":114.040348},"created":"8/15/2018","headline":"sollicitudin mi sit amet lobortis sapien sapien non mi integer","comment":"aliquet ultrices erat tortor sollicitudin mi sit amet lobortis sapien sapien non mi integer ac neque duis bibendum morbi","title":"Reduced next generation alliance"},
{"location":{"lat":-6.9262046,"lng":112.1474925},"created":"4/3/2018","headline":"nascetur ridiculus mus vivamus vestibulum","comment":"nisi volutpat eleifend donec ut dolor morbi vel lectus in quam fringilla rhoncus mauris enim leo","title":"Multi-layered stable capability"},
{"location":{"lat":30.531919,"lng":117.115101},"created":"1/21/2019","headline":"donec diam neque vestibulum eget vulputate","comment":"sed accumsan felis ut at dolor quis odio consequat varius integer ac leo pellentesque ultrices mattis odio donec vitae","title":"Expanded maximized conglomeration"},
{"location":{"lat":4.870121,"lng":-75.62239},"created":"11/30/2018","headline":"magna ac consequat metus sapien ut nunc vestibulum ante ipsum","comment":"id pretium iaculis diam erat fermentum justo nec condimentum neque sapien placerat","title":"Optimized local emulation"},
{"location":{"lat":57.423063,"lng":25.900378},"created":"11/25/2018","headline":"phasellus in felis donec semper","comment":"metus aenean fermentum donec ut mauris eget massa tempor convallis nulla neque","title":"Managed multi-tasking adapter"},
{"location":{"lat":38.6206914,"lng":-90.4408037},"created":"3/11/2018","headline":"erat curabitur gravida nisi at nibh in hac habitasse platea","comment":"luctus rutrum nulla tellus in sagittis dui vel nisl duis ac nibh fusce","title":"Configurable zero tolerance system engine"},
{"location":{"lat":13.5122393,"lng":-88.8694951},"created":"1/8/2019","headline":"congue vivamus metus arcu adipiscing molestie hendrerit at vulputate vitae","comment":"sit amet lobortis sapien sapien non mi integer ac neque duis bibendum","title":"Centralized coherent utilisation"},
{"location":{"lat":-22.4183841,"lng":-44.3482701},"created":"10/18/2018","headline":"odio in hac habitasse platea dictumst maecenas ut massa quis","comment":"integer aliquet massa id lobortis convallis tortor risus dapibus augue vel accumsan tellus nisi eu orci mauris","title":"Managed homogeneous hierarchy"},
{"location":{"lat":"34.90994","lng":"109.73445"},"created":"10/17/2018","headline":"nec euismod scelerisque quam turpis adipiscing lorem","comment":"aliquam sit amet diam in magna bibendum imperdiet nullam orci pede venenatis","title":"Profit-focused user-facing info-mediaries"},
{"location":{"lat":44.760391,"lng":127.082675},"created":"10/3/2018","headline":"pede malesuada in imperdiet et commodo vulputate justo in","comment":"feugiat et eros vestibulum ac est lacinia nisi venenatis tristique fusce congue diam id ornare imperdiet sapien urna pretium","title":"Fully-configurable exuding artificial intelligence"},
{"location":{"lat":50.060504,"lng":12.985071},"created":"8/3/2018","headline":"sit amet consectetuer adipiscing elit","comment":"nec condimentum neque sapien placerat ante nulla justo aliquam quis turpis eget elit sodales scelerisque","title":"Multi-channelled uniform frame"},
{"location":{"lat":3.5262275,"lng":98.5708754},"created":"9/16/2018","headline":"quis turpis eget elit sodales","comment":"nibh in hac habitasse platea dictumst aliquam augue quam sollicitudin vitae consectetuer eget rutrum at lorem integer tincidunt ante vel","title":"Progressive regional core"},
{"location":{"lat":14.5495607,"lng":-90.7858316},"created":"3/12/2018","headline":"leo rhoncus sed vestibulum sit amet cursus id","comment":"vel augue vestibulum rutrum rutrum neque aenean auctor gravida sem praesent id massa id nisl venenatis lacinia aenean","title":"Virtual analyzing leverage"},
{"location":{"lat":59.9000274,"lng":150.8632131},"created":"3/10/2018","headline":"orci pede venenatis non sodales","comment":"facilisi cras non velit nec nisi vulputate nonummy maecenas tincidunt lacus at velit vivamus vel nulla eget eros elementum pellentesque","title":"Triple-buffered systemic attitude"},
{"location":{"lat":38.661678,"lng":-9.2406619},"created":"9/22/2018","headline":"nulla suspendisse potenti cras in","comment":"nunc proin at turpis a pede posuere nonummy integer non","title":"Phased 5th generation parallelism"},
{"location":{"lat":48.7618689,"lng":14.732221},"created":"4/23/2018","headline":"lobortis ligula sit amet eleifend pede libero","comment":"proin risus praesent lectus vestibulum quam sapien varius ut blandit non interdum in ante vestibulum ante ipsum primis","title":"Optimized analyzing task-force"},
{"location":{"lat":3.3217785,"lng":101.4679893},"created":"11/6/2018","headline":"egestas metus aenean fermentum donec ut","comment":"in eleifend quam a odio in hac habitasse platea dictumst maecenas ut massa","title":"Organic 6th generation methodology"},
{"location":{"lat":-32.6626805,"lng":-58.1295074},"created":"6/20/2018","headline":"integer pede justo lacinia eget tincidunt eget tempus","comment":"accumsan tellus nisi eu orci mauris lacinia sapien quis libero nullam sit amet turpis elementum","title":"Face to face heuristic array"},
{"location":{"lat":2.7239834,"lng":101.9476452},"created":"3/13/2018","headline":"leo rhoncus sed vestibulum sit amet","comment":"diam erat fermentum justo nec condimentum neque sapien placerat ante","title":"Function-based zero defect concept"},
{"location":{"lat":18.2540705,"lng":-70.3600393},"created":"12/8/2018","headline":"sed tincidunt eu felis fusce posuere felis sed lacus","comment":"vel enim sit amet nunc viverra dapibus nulla suscipit ligula in lacus curabitur at ipsum ac tellus semper interdum mauris","title":"Right-sized reciprocal hub"},
{"location":{"lat":55.6735436,"lng":12.5736491},"created":"7/23/2018","headline":"vel ipsum praesent blandit lacinia erat vestibulum","comment":"convallis tortor risus dapibus augue vel accumsan tellus nisi eu orci mauris lacinia sapien","title":"Total contextually-based toolset"},
{"location":{"lat":"-8.0604","lng":"111.5793"},"created":"3/17/2018","headline":"integer ac leo pellentesque ultrices mattis odio donec","comment":"vulputate elementum nullam varius nulla facilisi cras non velit nec nisi vulputate nonummy maecenas tincidunt lacus","title":"Total impactful functionalities"},
{"location":{"lat":-20.015942,"lng":-49.7319925},"created":"8/9/2018","headline":"aliquam non mauris morbi non lectus aliquam sit amet diam","comment":"in ante vestibulum ante ipsum primis in faucibus orci luctus et ultrices posuere cubilia","title":"Exclusive content-based customer loyalty"},
{"location":{"lat":44.2298189,"lng":-79.4619506},"created":"2/23/2018","headline":"mauris enim leo rhoncus sed","comment":"sapien placerat ante nulla justo aliquam quis turpis eget elit sodales scelerisque mauris sit amet","title":"User-friendly reciprocal open system"},
{"location":{"lat":-6.3967343,"lng":107.434768},"created":"11/4/2018","headline":"et ultrices posuere cubilia curae donec pharetra magna","comment":"nulla sed vel enim sit amet nunc viverra dapibus nulla suscipit ligula in lacus curabitur at ipsum ac tellus","title":"Implemented foreground paradigm"},
{"location":{"lat":14.6066438,"lng":104.705431},"created":"11/22/2018","headline":"augue aliquam erat volutpat in congue","comment":"ut suscipit a feugiat et eros vestibulum ac est lacinia nisi venenatis tristique fusce","title":"Managed attitude-oriented contingency"},
{"location":{"lat":-6.1950758,"lng":106.8216077},"created":"8/20/2018","headline":"semper est quam pharetra magna ac consequat metus","comment":"ipsum primis in faucibus orci luctus et ultrices posuere cubilia curae donec","title":"Open-source client-driven neural-net"},
{"location":{"lat":-9.147484,"lng":33.79272},"created":"7/13/2018","headline":"parturient montes nascetur ridiculus mus vivamus vestibulum sagittis sapien cum","comment":"justo eu massa donec dapibus duis at velit eu est congue elementum in hac habitasse platea dictumst morbi","title":"Re-engineered mission-critical throughput"},
{"location":{"lat":18.2865589,"lng":105.4771084},"created":"1/31/2018","headline":"nullam varius nulla facilisi cras non velit nec nisi vulputate","comment":"vivamus in felis eu sapien cursus vestibulum proin eu mi nulla ac enim in tempor turpis nec euismod scelerisque","title":"Managed value-added pricing structure"},
{"location":{"lat":-20.6639305,"lng":-43.7850227},"created":"1/9/2019","headline":"sit amet nunc viverra dapibus","comment":"vestibulum aliquet ultrices erat tortor sollicitudin mi sit amet lobortis sapien sapien non mi integer ac neque duis bibendum","title":"Decentralized stable synergy"},
{"location":{"lat":"16.18271","lng":"44.62613"},"created":"9/12/2018","headline":"aliquam erat volutpat in congue etiam justo etiam pretium","comment":"id turpis integer aliquet massa id lobortis convallis tortor risus dapibus augue vel accumsan tellus nisi eu orci","title":"Exclusive 24/7 core"},
{"location":{"lat":37.9414132,"lng":-77.3472943},"created":"3/23/2018","headline":"nisl nunc rhoncus dui vel sem sed sagittis nam","comment":"consequat in consequat ut nulla sed accumsan felis ut at","title":"Virtual radical circuit"},
{"location":{"lat":56.4177803,"lng":21.8525134},"created":"12/25/2018","headline":"erat volutpat in congue etiam justo","comment":"habitasse platea dictumst etiam faucibus cursus urna ut tellus nulla","title":"Cross-platform zero administration encryption"},
{"location":{"lat":4.203572,"lng":-74.643383},"created":"1/16/2019","headline":"lectus in quam fringilla rhoncus mauris","comment":"varius nulla facilisi cras non velit nec nisi vulputate nonummy maecenas tincidunt lacus","title":"Versatile global moderator"},
{"location":{"lat":47.372696,"lng":132.145184},"created":"1/19/2019","headline":"venenatis tristique fusce congue diam id ornare imperdiet sapien urna","comment":"aliquam convallis nunc proin at turpis a pede posuere nonummy integer non velit donec diam neque","title":"Ameliorated optimizing internet solution"},
{"location":{"lat":23.7321074,"lng":-103.9832684},"created":"9/10/2018","headline":"etiam faucibus cursus urna ut tellus nulla","comment":"in sapien iaculis congue vivamus metus arcu adipiscing molestie hendrerit at vulputate vitae nisl aenean lectus pellentesque eget nunc donec","title":"Reactive asynchronous firmware"},
{"location":{"lat":30.051035,"lng":122.0185},"created":"3/1/2018","headline":"ut nunc vestibulum ante ipsum primis in faucibus","comment":"sapien non mi integer ac neque duis bibendum morbi non quam nec dui luctus","title":"Programmable fault-tolerant software"},
{"location":{"lat":14.965327,"lng":-91.79528},"created":"1/24/2019","headline":"dolor sit amet consectetuer adipiscing elit","comment":"vestibulum quam sapien varius ut blandit non interdum in ante vestibulum ante ipsum primis","title":"Ameliorated multi-state success"},
{"location":{"lat":0.0925393,"lng":109.2891005},"created":"5/15/2018","headline":"sit amet turpis elementum ligula vehicula consequat morbi a ipsum","comment":"fermentum donec ut mauris eget massa tempor convallis nulla neque libero convallis","title":"Cross-platform system-worthy middleware"},
{"location":{"lat":-6.3413734,"lng":106.5495683},"created":"11/5/2018","headline":"non mi integer ac neque duis bibendum morbi non","comment":"enim in tempor turpis nec euismod scelerisque quam turpis adipiscing lorem","title":"Total system-worthy migration"},
{"location":{"lat":45.4934392,"lng":11.0332618},"created":"7/7/2018","headline":"sapien ut nunc vestibulum ante ipsum primis","comment":"quis libero nullam sit amet turpis elementum ligula vehicula consequat morbi a ipsum integer a nibh","title":"Assimilated reciprocal architecture"},
{"location":{"lat":2.7239834,"lng":101.9476452},"created":"4/2/2018","headline":"suscipit nulla elit ac nulla sed","comment":"interdum eu tincidunt in leo maecenas pulvinar lobortis est phasellus sit","title":"Self-enabling stable internet solution"},
{"location":{"lat":43.2038704,"lng":44.8434843},"created":"11/4/2018","headline":"eget nunc donec quis orci eget","comment":"blandit nam nulla integer pede justo lacinia eget tincidunt eget tempus","title":"Re-contextualized hybrid array"},
{"location":{"lat":29.233038,"lng":56.6008972},"created":"3/3/2018","headline":"proin at turpis a pede posuere nonummy integer non","comment":"ac est lacinia nisi venenatis tristique fusce congue diam id ornare imperdiet sapien urna pretium","title":"Secured encompassing forecast"},
{"location":{"lat":-0.223997,"lng":111.391098},"created":"5/9/2018","headline":"non mauris morbi non lectus aliquam sit amet diam","comment":"at feugiat non pretium quis lectus suspendisse potenti in eleifend quam a odio in hac habitasse","title":"Intuitive intangible utilisation"},
{"location":{"lat":-34.6310923,"lng":-58.8801499},"created":"7/25/2018","headline":"nec nisi volutpat eleifend donec","comment":"morbi non lectus aliquam sit amet diam in magna bibendum imperdiet nullam orci pede","title":"Fully-configurable fault-tolerant task-force"},
{"location":{"lat":8.417766,"lng":126.207415},"created":"1/7/2019","headline":"eget eleifend luctus ultricies eu","comment":"non ligula pellentesque ultrices phasellus id sapien in sapien iaculis congue vivamus metus arcu adipiscing molestie","title":"Streamlined bifurcated workforce"},
{"location":{"lat":61.7664099,"lng":22.4781721},"created":"3/7/2018","headline":"ipsum dolor sit amet consectetuer","comment":"integer ac leo pellentesque ultrices mattis odio donec vitae nisi nam ultrices libero non","title":"User-friendly value-added leverage"},
{"location":{"lat":50.6026456,"lng":17.0703956},"created":"12/30/2018","headline":"parturient montes nascetur ridiculus mus etiam vel","comment":"dolor quis odio consequat varius integer ac leo pellentesque ultrices mattis","title":"Multi-tiered foreground approach"},
{"location":{"lat":59.9050895,"lng":10.7673005},"created":"7/18/2018","headline":"ornare consequat lectus in est risus auctor sed","comment":"nec dui luctus rutrum nulla tellus in sagittis dui vel nisl duis ac nibh fusce lacus purus aliquet at","title":"Monitored heuristic time-frame"},
{"location":{"lat":19.3362853,"lng":-72.1164358},"created":"2/13/2018","headline":"felis fusce posuere felis sed lacus","comment":"elementum in hac habitasse platea dictumst morbi vestibulum velit id pretium iaculis diam erat","title":"Compatible user-facing collaboration"},
{"location":{"lat":11.5399857,"lng":-85.6986957},"created":"11/11/2018","headline":"nec nisi volutpat eleifend donec ut dolor morbi vel","comment":"proin eu mi nulla ac enim in tempor turpis nec euismod","title":"Persistent multimedia concept"},
{"location":{"lat":-7.0964497,"lng":108.6828838},"created":"12/17/2018","headline":"imperdiet et commodo vulputate justo in blandit ultrices","comment":"nec euismod scelerisque quam turpis adipiscing lorem vitae mattis nibh ligula nec sem duis aliquam convallis","title":"Multi-tiered disintermediate capability"},
{"location":{"lat":13.1795278,"lng":32.7520139},"created":"8/29/2018","headline":"sit amet cursus id turpis integer aliquet massa id","comment":"porttitor lacus at turpis donec posuere metus vitae ipsum aliquam non mauris morbi non lectus aliquam sit amet diam","title":"Quality-focused multimedia extranet"},
{"location":{"lat":41.410051,"lng":-7.4489531},"created":"3/31/2018","headline":"et eros vestibulum ac est","comment":"tellus nulla ut erat id mauris vulputate elementum nullam varius nulla facilisi cras non velit nec nisi vulputate","title":"Balanced fresh-thinking process improvement"},
{"location":{"lat":2.9329721,"lng":101.6259842},"created":"12/14/2018","headline":"interdum in ante vestibulum ante ipsum primis in","comment":"cum sociis natoque penatibus et magnis dis parturient montes nascetur ridiculus mus etiam vel augue vestibulum rutrum rutrum neque","title":"Configurable contextually-based functionalities"},
{"location":{"lat":8.665089,"lng":-73.822663},"created":"8/27/2018","headline":"magnis dis parturient montes nascetur","comment":"id massa id nisl venenatis lacinia aenean sit amet justo morbi ut odio cras mi pede malesuada in","title":"Face to face multimedia frame"},
{"location":{"lat":33.5465493,"lng":-101.85193},"created":"11/1/2018","headline":"nibh in hac habitasse platea dictumst aliquam augue quam","comment":"convallis eget eleifend luctus ultricies eu nibh quisque id justo","title":"Public-key stable policy"},
{"location":{"lat":5.9840985,"lng":116.0761121},"created":"1/12/2019","headline":"mus vivamus vestibulum sagittis sapien cum sociis","comment":"urna pretium nisl ut volutpat sapien arcu sed augue aliquam erat volutpat in congue etiam justo etiam pretium iaculis","title":"Networked web-enabled Graphical User Interface"},
{"location":{"lat":51.0248584,"lng":22.8537385},"created":"2/18/2018","headline":"sem fusce consequat nulla nisl nunc","comment":"rhoncus aliquam lacus morbi quis tortor id nulla ultrices aliquet maecenas","title":"Diverse scalable firmware"},
{"location":{"lat":34.646636,"lng":103.48159},"created":"6/3/2018","headline":"curabitur convallis duis consequat dui nec nisi","comment":"volutpat sapien arcu sed augue aliquam erat volutpat in congue etiam justo etiam pretium iaculis","title":"Streamlined fresh-thinking collaboration"},
{"location":{"lat":57.1447448,"lng":43.1648753},"created":"8/29/2018","headline":"justo morbi ut odio cras","comment":"phasellus in felis donec semper sapien a libero nam dui proin","title":"Enhanced actuating artificial intelligence"},
{"location":{"lat":-34.4922897,"lng":-58.6799941},"created":"5/18/2018","headline":"lacus purus aliquet at feugiat non pretium quis lectus suspendisse","comment":"potenti cras in purus eu magna vulputate luctus cum sociis natoque penatibus et magnis","title":"Re-contextualized fault-tolerant contingency"},
{"location":{"lat":22.025118,"lng":113.209606},"created":"6/2/2018","headline":"maecenas ut massa quis augue luctus","comment":"dui maecenas tristique est et tempus semper est quam pharetra magna ac consequat metus sapien ut nunc","title":"Configurable fresh-thinking database"},
{"location":{"lat":28.852393,"lng":85.297534},"created":"12/14/2018","headline":"sit amet consectetuer adipiscing elit proin interdum mauris non","comment":"elementum eu interdum eu tincidunt in leo maecenas pulvinar lobortis est phasellus sit amet","title":"Progressive actuating analyzer"},
{"location":{"lat":40.8806112,"lng":26.045885},"created":"12/14/2018","headline":"ultrices posuere cubilia curae duis faucibus accumsan odio","comment":"auctor sed tristique in tempus sit amet sem fusce consequat nulla nisl nunc nisl duis bibendum felis sed interdum venenatis","title":"Seamless high-level migration"},
{"location":{"lat":51.777114,"lng":16.818952},"created":"3/10/2018","headline":"duis consequat dui nec nisi volutpat eleifend donec ut dolor","comment":"penatibus et magnis dis parturient montes nascetur ridiculus mus vivamus vestibulum sagittis sapien cum sociis natoque penatibus et magnis","title":"Realigned object-oriented encryption"},
{"location":{"lat":11.7907511,"lng":102.8773712},"created":"8/16/2018","headline":"sed vel enim sit amet nunc","comment":"tellus nulla ut erat id mauris vulputate elementum nullam varius nulla facilisi cras","title":"Up-sized exuding hierarchy"},
{"location":{"lat":-8.6791477,"lng":115.1786531},"created":"7/16/2018","headline":"platea dictumst etiam faucibus cursus","comment":"donec ut dolor morbi vel lectus in quam fringilla rhoncus mauris","title":"Integrated explicit Graphic Interface"},
{"location":{"lat":41.3537964,"lng":-8.540112},"created":"1/9/2019","headline":"placerat ante nulla justo aliquam quis turpis","comment":"congue diam id ornare imperdiet sapien urna pretium nisl ut","title":"Fundamental heuristic protocol"},
{"location":{"lat":"-8.8043","lng":"121.5146"},"created":"6/3/2018","headline":"est congue elementum in hac","comment":"eget eleifend luctus ultricies eu nibh quisque id justo sit amet sapien dignissim vestibulum vestibulum ante ipsum primis in","title":"Team-oriented system-worthy customer loyalty"},
{"location":{"lat":43.525311,"lng":125.664662},"created":"12/16/2018","headline":"convallis morbi odio odio elementum eu interdum eu tincidunt in","comment":"vestibulum rutrum rutrum neque aenean auctor gravida sem praesent id massa id nisl venenatis lacinia","title":"Operative bifurcated algorithm"},
{"location":{"lat":38.6640687,"lng":-8.9161487},"created":"5/5/2018","headline":"eros viverra eget congue eget semper rutrum","comment":"tortor quis turpis sed ante vivamus tortor duis mattis egestas metus aenean fermentum donec ut mauris eget","title":"Right-sized multi-state algorithm"},
{"location":{"lat":-6.9401945,"lng":106.9247932},"created":"7/15/2018","headline":"nullam varius nulla facilisi cras non velit nec","comment":"at lorem integer tincidunt ante vel ipsum praesent blandit lacinia erat vestibulum sed","title":"Integrated holistic forecast"},
{"location":{"lat":38.8678657,"lng":-9.4272778},"created":"4/2/2018","headline":"in faucibus orci luctus et ultrices posuere cubilia curae","comment":"nonummy integer non velit donec diam neque vestibulum eget vulputate ut ultrices vel augue","title":"Extended grid-enabled parallelism"},
{"location":{"lat":14.0119593,"lng":43.8673222},"created":"10/7/2018","headline":"mattis egestas metus aenean fermentum","comment":"parturient montes nascetur ridiculus mus etiam vel augue vestibulum rutrum","title":"Compatible content-based website"},
{"location":{"lat":31.9633663,"lng":49.2892129},"created":"6/26/2018","headline":"sodales sed tincidunt eu felis","comment":"mauris enim leo rhoncus sed vestibulum sit amet cursus id turpis integer aliquet","title":"Reactive encompassing array"},
{"location":{"lat":-20.3617008,"lng":29.5107708},"created":"3/9/2018","headline":"nisl nunc rhoncus dui vel sem","comment":"vehicula consequat morbi a ipsum integer a nibh in quis","title":"Fully-configurable responsive definition"},
{"location":{"lat":27.690732,"lng":111.45269},"created":"7/20/2018","headline":"tellus semper interdum mauris ullamcorper purus sit","comment":"porttitor pede justo eu massa donec dapibus duis at velit eu est congue elementum in","title":"User-friendly 6th generation artificial intelligence"},
{"location":{"lat":"13.91581","lng":"44.32414"},"created":"7/24/2018","headline":"at nunc commodo placerat praesent","comment":"turpis a pede posuere nonummy integer non velit donec diam neque vestibulum eget","title":"User-friendly mobile neural-net"},
{"location":{"lat":"0.76202","lng":"127.32015"},"created":"7/5/2018","headline":"a pede posuere nonummy integer non velit","comment":"cubilia curae mauris viverra diam vitae quam suspendisse potenti nullam","title":"Digitized static framework"},
{"location":{"lat":2.9405941,"lng":9.9101915},"created":"9/1/2018","headline":"fusce posuere felis sed lacus morbi","comment":"quam nec dui luctus rutrum nulla tellus in sagittis dui vel nisl duis","title":"Secured tertiary solution"},
{"location":{"lat":31.340637,"lng":119.823308},"created":"9/26/2018","headline":"in quis justo maecenas rhoncus aliquam lacus","comment":"nulla suscipit ligula in lacus curabitur at ipsum ac tellus semper interdum mauris ullamcorper purus","title":"Programmable disintermediate middleware"},
{"location":{"lat":36.130754,"lng":107.497706},"created":"4/17/2018","headline":"lacus at turpis donec posuere metus vitae ipsum","comment":"nulla sed accumsan felis ut at dolor quis odio consequat varius integer ac leo pellentesque ultrices","title":"Configurable tangible model"},
{"location":{"lat":37.6883607,"lng":22.7120308},"created":"10/18/2018","headline":"vivamus metus arcu adipiscing molestie hendrerit at vulputate vitae nisl","comment":"pulvinar nulla pede ullamcorper augue a suscipit nulla elit ac nulla sed vel","title":"Team-oriented global moderator"},
{"location":{"lat":20.0980577,"lng":-101.5027855},"created":"11/20/2018","headline":"nunc donec quis orci eget orci vehicula condimentum curabitur in","comment":"sed magna at nunc commodo placerat praesent blandit nam nulla integer","title":"Persistent value-added synergy"},
{"location":{"lat":53.5281012,"lng":16.0186245},"created":"6/6/2018","headline":"venenatis non sodales sed tincidunt eu","comment":"sit amet consectetuer adipiscing elit proin risus praesent lectus vestibulum quam sapien varius ut blandit non interdum in","title":"Triple-buffered directional workforce"},
{"location":{"lat":7.1302807,"lng":-3.2030756},"created":"3/24/2018","headline":"aliquet pulvinar sed nisl nunc rhoncus dui","comment":"diam id ornare imperdiet sapien urna pretium nisl ut volutpat sapien arcu sed augue aliquam erat volutpat in congue","title":"Robust intangible analyzer"},
{"location":{"lat":-33.8882671,"lng":151.2078465},"created":"5/7/2018","headline":"cum sociis natoque penatibus et magnis","comment":"augue a suscipit nulla elit ac nulla sed vel enim sit amet nunc viverra dapibus nulla suscipit ligula in lacus","title":"Expanded modular info-mediaries"},
{"location":{"lat":30.1185635,"lng":-95.3730176},"created":"4/10/2018","headline":"lacinia sapien quis libero nullam sit amet turpis elementum","comment":"bibendum felis sed interdum venenatis turpis enim blandit mi in porttitor","title":"De-engineered needs-based support"},
{"location":{"lat":40.381657,"lng":116.948097},"created":"7/29/2018","headline":"pede malesuada in imperdiet et commodo vulputate","comment":"dictumst aliquam augue quam sollicitudin vitae consectetuer eget rutrum at lorem integer tincidunt ante vel ipsum praesent blandit lacinia","title":"Distributed clear-thinking product"},
{"location":{"lat":-16.2976181,"lng":-68.533658},"created":"2/23/2018","headline":"nulla suspendisse potenti cras in","comment":"eros viverra eget congue eget semper rutrum nulla nunc purus phasellus in felis donec semper sapien a libero","title":"Face to face attitude-oriented throughput"},
{"location":{"lat":43.4903429,"lng":5.3378155},"created":"4/21/2018","headline":"luctus et ultrices posuere cubilia curae duis faucibus accumsan","comment":"sapien dignissim vestibulum vestibulum ante ipsum primis in faucibus orci luctus et ultrices posuere cubilia curae nulla dapibus dolor","title":"Reactive zero defect definition"},
{"location":{"lat":13.5260215,"lng":123.2925505},"created":"5/9/2018","headline":"varius ut blandit non interdum in","comment":"dui nec nisi volutpat eleifend donec ut dolor morbi vel lectus in quam fringilla rhoncus","title":"Organized modular open system"},
{"location":{"lat":14.8725628,"lng":38.8100855},"created":"12/8/2018","headline":"non lectus aliquam sit amet diam in magna bibendum","comment":"risus praesent lectus vestibulum quam sapien varius ut blandit non interdum in ante vestibulum ante ipsum primis","title":"Implemented 24 hour flexibility"},
{"location":{"lat":-14.3521224,"lng":-170.7810162},"created":"3/16/2018","headline":"nunc purus phasellus in felis donec semper sapien a","comment":"orci luctus et ultrices posuere cubilia curae donec pharetra magna vestibulum aliquet","title":"Streamlined 6th generation array"},
{"location":{"lat":15.77511,"lng":108.1665855},"created":"6/28/2018","headline":"blandit lacinia erat vestibulum sed magna","comment":"in faucibus orci luctus et ultrices posuere cubilia curae mauris viverra diam vitae","title":"Advanced multimedia moderator"},
{"location":{"lat":2.0121688,"lng":98.9797467},"created":"3/28/2018","headline":"justo aliquam quis turpis eget","comment":"adipiscing elit proin interdum mauris non ligula pellentesque ultrices phasellus id sapien in sapien iaculis","title":"Horizontal hybrid instruction set"},
{"location":{"lat":"-6.7422","lng":"111.3587"},"created":"3/17/2018","headline":"pretium quis lectus suspendisse potenti in eleifend quam a","comment":"lacinia aenean sit amet justo morbi ut odio cras mi pede malesuada in imperdiet et commodo","title":"Open-source actuating adapter"},
{"location":{"lat":27.5920869,"lng":89.8797459},"created":"10/20/2018","headline":"sit amet erat nulla tempus vivamus in felis eu","comment":"pulvinar nulla pede ullamcorper augue a suscipit nulla elit ac","title":"Innovative multi-tasking support"},
{"location":{"lat":44.023338,"lng":43.0973244},"created":"10/28/2018","headline":"ultrices posuere cubilia curae duis faucibus accumsan odio","comment":"tempus vivamus in felis eu sapien cursus vestibulum proin eu mi nulla ac enim","title":"Intuitive global projection"},
{"location":{"lat":35.621965,"lng":118.725698},"created":"10/23/2018","headline":"id nulla ultrices aliquet maecenas leo odio condimentum id","comment":"habitasse platea dictumst aliquam augue quam sollicitudin vitae consectetuer eget rutrum at lorem integer tincidunt","title":"Operative multimedia toolset"},
{"location":{"lat":13.9734064,"lng":121.6889505},"created":"1/14/2019","headline":"eget semper rutrum nulla nunc purus phasellus","comment":"consectetuer eget rutrum at lorem integer tincidunt ante vel ipsum praesent blandit lacinia erat vestibulum sed magna at","title":"Upgradable bottom-line collaboration"},
{"location":{"lat":24.6152794,"lng":118.1011155},"created":"6/22/2018","headline":"blandit lacinia erat vestibulum sed","comment":"integer non velit donec diam neque vestibulum eget vulputate ut ultrices vel augue vestibulum ante ipsum primis","title":"Balanced leading edge matrices"},
{"location":{"lat":35.585575,"lng":119.761775},"created":"11/7/2018","headline":"mi sit amet lobortis sapien sapien non mi integer ac","comment":"ornare consequat lectus in est risus auctor sed tristique in tempus sit amet sem fusce consequat","title":"Diverse leading edge migration"},
{"location":{"lat":48.6277459,"lng":2.4381665},"created":"10/21/2018","headline":"ut ultrices vel augue vestibulum ante ipsum primis in faucibus","comment":"justo etiam pretium iaculis justo in hac habitasse platea dictumst etiam faucibus cursus urna ut tellus nulla","title":"Seamless zero defect concept"},
{"location":{"lat":15.1650908,"lng":120.5657329},"created":"2/24/2018","headline":"laoreet ut rhoncus aliquet pulvinar sed nisl nunc","comment":"ultrices mattis odio donec vitae nisi nam ultrices libero non mattis pulvinar nulla pede ullamcorper augue a","title":"Team-oriented neutral portal"},
{"location":{"lat":51.6773339,"lng":5.0633742},"created":"1/16/2019","headline":"eros viverra eget congue eget semper rutrum nulla","comment":"proin at turpis a pede posuere nonummy integer non velit donec diam neque vestibulum","title":"Managed explicit firmware"},
{"location":{"lat":-10.1917127,"lng":123.5616058},"created":"10/30/2018","headline":"mauris viverra diam vitae quam","comment":"non velit nec nisi vulputate nonummy maecenas tincidunt lacus at velit vivamus vel nulla eget eros elementum pellentesque quisque porta","title":"Fundamental methodical encoding"},
{"location":{"lat":-34.5903044,"lng":-58.4985279},"created":"7/3/2018","headline":"tempus vivamus in felis eu sapien cursus","comment":"tortor risus dapibus augue vel accumsan tellus nisi eu orci mauris lacinia sapien","title":"Self-enabling systematic standardization"},
{"location":{"lat":7.5949353,"lng":124.153749},"created":"11/28/2018","headline":"interdum in ante vestibulum ante ipsum primis in faucibus","comment":"non mauris morbi non lectus aliquam sit amet diam in magna bibendum imperdiet nullam orci","title":"Automated multi-state time-frame"},
{"location":{"lat":-8.5413769,"lng":115.1682089},"created":"2/21/2018","headline":"in ante vestibulum ante ipsum primis","comment":"orci luctus et ultrices posuere cubilia curae mauris viverra diam vitae quam suspendisse potenti nullam porttitor lacus at turpis donec","title":"Switchable exuding instruction set"},
{"location":{"lat":-7.6487545,"lng":108.7897976},"created":"5/13/2018","headline":"ligula nec sem duis aliquam convallis nunc","comment":"sit amet erat nulla tempus vivamus in felis eu sapien cursus vestibulum proin eu mi nulla ac","title":"Universal mission-critical hierarchy"},
{"location":{"lat":53.0641593,"lng":38.0521393},"created":"8/29/2018","headline":"congue diam id ornare imperdiet","comment":"convallis tortor risus dapibus augue vel accumsan tellus nisi eu orci mauris lacinia sapien quis libero nullam sit amet","title":"Self-enabling local capability"},
{"location":{"lat":30.169665,"lng":121.266579},"created":"10/8/2018","headline":"orci luctus et ultrices posuere cubilia curae mauris","comment":"id turpis integer aliquet massa id lobortis convallis tortor risus dapibus","title":"Advanced global framework"},
{"location":{"lat":14.5672317,"lng":121.0298199},"created":"7/14/2018","headline":"a libero nam dui proin leo","comment":"lectus aliquam sit amet diam in magna bibendum imperdiet nullam orci pede venenatis","title":"Devolved radical synergy"},
{"location":{"lat":57.9282881,"lng":30.7057423},"created":"7/30/2018","headline":"in blandit ultrices enim lorem","comment":"sed ante vivamus tortor duis mattis egestas metus aenean fermentum","title":"Pre-emptive coherent circuit"},
{"location":{"lat":26.641315,"lng":100.222545},"created":"9/30/2018","headline":"justo in hac habitasse platea dictumst etiam faucibus","comment":"odio odio elementum eu interdum eu tincidunt in leo maecenas pulvinar lobortis est phasellus sit amet erat nulla","title":"Integrated context-sensitive methodology"},
{"location":{"lat":35.474465,"lng":128.2579205},"created":"7/27/2018","headline":"eget semper rutrum nulla nunc","comment":"nunc nisl duis bibendum felis sed interdum venenatis turpis enim blandit mi in porttitor pede justo","title":"Automated upward-trending collaboration"},
{"location":{"lat":50.0144436,"lng":18.2125197},"created":"12/21/2018","headline":"dui luctus rutrum nulla tellus in sagittis","comment":"dolor morbi vel lectus in quam fringilla rhoncus mauris enim leo rhoncus sed","title":"Enterprise-wide heuristic archive"},
{"location":{"lat":67.8256178,"lng":20.3351033},"created":"1/16/2019","headline":"aenean fermentum donec ut mauris","comment":"eleifend luctus ultricies eu nibh quisque id justo sit amet sapien dignissim vestibulum vestibulum ante ipsum primis in","title":"Public-key impactful monitoring"},
{"location":{"lat":40.284979,"lng":117.134151},"created":"8/25/2018","headline":"leo maecenas pulvinar lobortis est phasellus","comment":"mauris viverra diam vitae quam suspendisse potenti nullam porttitor lacus at turpis donec posuere metus vitae","title":"Mandatory high-level array"},
{"location":{"lat":34.058401,"lng":107.319116},"created":"1/4/2019","headline":"ipsum primis in faucibus orci luctus et ultrices posuere cubilia","comment":"nulla neque libero convallis eget eleifend luctus ultricies eu nibh quisque id justo sit amet sapien","title":"Organized next generation knowledge base"},
{"location":{"lat":14.6230693,"lng":120.9964652},"created":"4/23/2018","headline":"viverra pede ac diam cras pellentesque volutpat dui maecenas","comment":"duis mattis egestas metus aenean fermentum donec ut mauris eget massa tempor","title":"Secured modular application"},
{"location":{"lat":18.8782625,"lng":-71.5036905},"created":"7/3/2018","headline":"dictumst maecenas ut massa quis augue luctus tincidunt nulla mollis","comment":"ut massa quis augue luctus tincidunt nulla mollis molestie lorem","title":"Centralized high-level local area network"},
{"location":{"lat":"-7.1569","lng":"108.0375"},"created":"3/6/2018","headline":"venenatis tristique fusce congue diam id ornare","comment":"augue vestibulum ante ipsum primis in faucibus orci luctus et","title":"Front-line explicit array"},
{"location":{"lat":13.0748879,"lng":120.7213113},"created":"7/24/2018","headline":"amet lobortis sapien sapien non mi integer ac","comment":"mauris enim leo rhoncus sed vestibulum sit amet cursus id turpis integer aliquet massa id lobortis convallis","title":"Fully-configurable encompassing process improvement"},
{"location":{"lat":-7.690753,"lng":109.2861268},"created":"2/14/2018","headline":"rhoncus sed vestibulum sit amet cursus id turpis integer","comment":"quis orci eget orci vehicula condimentum curabitur in libero ut massa volutpat","title":"Universal 3rd generation product"},
{"location":{"lat":-7.9,"lng":39.2},"created":"10/6/2018","headline":"ullamcorper purus sit amet nulla quisque","comment":"condimentum id luctus nec molestie sed justo pellentesque viverra pede ac diam cras pellentesque","title":"Public-key mission-critical strategy"},
{"location":{"lat":10.2441931,"lng":-67.6066164},"created":"8/7/2018","headline":"vulputate nonummy maecenas tincidunt lacus at velit vivamus vel nulla","comment":"orci vehicula condimentum curabitur in libero ut massa volutpat convallis morbi odio odio elementum eu interdum","title":"Self-enabling transitional extranet"},
{"location":{"lat":-34.6175845,"lng":-58.5213843},"created":"12/31/2018","headline":"vivamus tortor duis mattis egestas metus","comment":"amet diam in magna bibendum imperdiet nullam orci pede venenatis non sodales sed tincidunt eu felis fusce posuere felis","title":"Virtual modular superstructure"},
{"location":{"lat":43.6777677,"lng":7.1492431},"created":"9/22/2018","headline":"ante ipsum primis in faucibus orci luctus et ultrices","comment":"nunc donec quis orci eget orci vehicula condimentum curabitur in libero ut massa volutpat convallis","title":"Innovative methodical framework"},
{"location":{"lat":-1.801926,"lng":-79.5346459},"created":"10/21/2018","headline":"sit amet eros suspendisse accumsan","comment":"nibh ligula nec sem duis aliquam convallis nunc proin at turpis a pede","title":"Switchable 4th generation utilisation"},
{"location":{"lat":8.7600869,"lng":-79.8576828},"created":"6/23/2018","headline":"semper porta volutpat quam pede lobortis ligula sit amet eleifend","comment":"donec diam neque vestibulum eget vulputate ut ultrices vel augue vestibulum ante ipsum primis in faucibus orci luctus et ultrices","title":"User-friendly bandwidth-monitored parallelism"},
{"location":{"lat":40.7530733,"lng":-73.8269805},"created":"3/22/2018","headline":"diam id ornare imperdiet sapien urna pretium nisl","comment":"etiam pretium iaculis justo in hac habitasse platea dictumst etiam faucibus cursus","title":"Visionary exuding leverage"},
{"location":{"lat":6.7468164,"lng":38.4139922},"created":"6/28/2018","headline":"maecenas rhoncus aliquam lacus morbi","comment":"turpis enim blandit mi in porttitor pede justo eu massa donec dapibus duis at velit eu est congue elementum in","title":"De-engineered mission-critical complexity"},
{"location":{"lat":-8.1469688,"lng":112.2890705},"created":"5/23/2018","headline":"pede justo eu massa donec dapibus duis at","comment":"consequat morbi a ipsum integer a nibh in quis justo maecenas rhoncus aliquam lacus morbi quis tortor id nulla ultrices","title":"Centralized coherent focus group"},
{"location":{"lat":13.5860809,"lng":-89.2918473},"created":"4/26/2018","headline":"nulla nunc purus phasellus in felis","comment":"a pede posuere nonummy integer non velit donec diam neque vestibulum eget","title":"Focused 6th generation approach"},
{"location":{"lat":25.454084,"lng":119.007777},"created":"11/3/2018","headline":"at vulputate vitae nisl aenean lectus pellentesque","comment":"vestibulum sed magna at nunc commodo placerat praesent blandit nam nulla integer pede justo lacinia eget tincidunt eget tempus","title":"Seamless impactful adapter"},
{"location":{"lat":52.4506032,"lng":19.6362734},"created":"9/17/2018","headline":"arcu adipiscing molestie hendrerit at vulputate","comment":"in quis justo maecenas rhoncus aliquam lacus morbi quis tortor id nulla","title":"Seamless neutral flexibility"},
{"location":{"lat":41.1279946,"lng":-7.9859629},"created":"4/18/2018","headline":"vestibulum ante ipsum primis in faucibus orci luctus et ultrices","comment":"cras in purus eu magna vulputate luctus cum sociis natoque penatibus et magnis","title":"Multi-tiered heuristic definition"},
{"location":{"lat":30.8043158,"lng":72.2069276},"created":"2/19/2018","headline":"purus phasellus in felis donec semper sapien a libero nam","comment":"scelerisque quam turpis adipiscing lorem vitae mattis nibh ligula nec sem","title":"Optimized object-oriented conglomeration"},
{"location":{"lat":28.659387,"lng":87.124099},"created":"3/24/2018","headline":"malesuada in imperdiet et commodo vulputate justo in","comment":"dictumst maecenas ut massa quis augue luctus tincidunt nulla mollis molestie lorem quisque ut erat curabitur gravida nisi at","title":"Synergized coherent intranet"},
{"location":{"lat":39.109563,"lng":117.223371},"created":"9/20/2018","headline":"nec condimentum neque sapien placerat ante nulla justo aliquam quis","comment":"nisl nunc nisl duis bibendum felis sed interdum venenatis turpis enim blandit mi in porttitor pede","title":"Front-line global info-mediaries"},
{"location":{"lat":-6.8903936,"lng":107.5889804},"created":"4/5/2018","headline":"ipsum integer a nibh in quis","comment":"justo lacinia eget tincidunt eget tempus vel pede morbi porttitor lorem","title":"Innovative bottom-line interface"},
{"location":{"lat":"15.6835","lng":"-91.81952"},"created":"9/13/2018","headline":"bibendum imperdiet nullam orci pede venenatis non sodales sed tincidunt","comment":"aliquet maecenas leo odio condimentum id luctus nec molestie sed justo pellentesque viverra pede ac","title":"Multi-channelled logistical functionalities"},
{"location":{"lat":27.202344,"lng":118.630479},"created":"12/16/2018","headline":"vel accumsan tellus nisi eu orci mauris lacinia","comment":"ut nulla sed accumsan felis ut at dolor quis odio","title":"Reverse-engineered bifurcated task-force"},
{"location":{"lat":50.3100516,"lng":106.4966629},"created":"6/2/2018","headline":"ut dolor morbi vel lectus in quam fringilla rhoncus mauris","comment":"quisque id justo sit amet sapien dignissim vestibulum vestibulum ante","title":"Advanced disintermediate task-force"},
{"location":{"lat":"-8.3739","lng":"124.4172"},"created":"7/18/2018","headline":"sapien urna pretium nisl ut volutpat","comment":"orci luctus et ultrices posuere cubilia curae mauris viverra diam vitae","title":"Enterprise-wide tangible process improvement"},
{"location":{"lat":29.696195,"lng":106.79542},"created":"11/1/2018","headline":"lectus in est risus auctor sed tristique","comment":"vivamus vestibulum sagittis sapien cum sociis natoque penatibus et magnis dis parturient montes nascetur ridiculus mus","title":"Versatile 24/7 throughput"},
{"location":{"lat":1.5991751,"lng":11.5759672},"created":"12/23/2018","headline":"tempor convallis nulla neque libero","comment":"vulputate luctus cum sociis natoque penatibus et magnis dis parturient","title":"User-friendly didactic architecture"},
{"location":{"lat":36.9564827,"lng":118.1147469},"created":"12/25/2018","headline":"volutpat sapien arcu sed augue aliquam erat","comment":"viverra diam vitae quam suspendisse potenti nullam porttitor lacus at turpis donec posuere metus vitae","title":"Multi-channelled even-keeled emulation"},
{"location":{"lat":36.7904088,"lng":138.7920847},"created":"8/28/2018","headline":"purus eu magna vulputate luctus cum","comment":"cubilia curae nulla dapibus dolor vel est donec odio justo sollicitudin ut suscipit a feugiat et eros vestibulum ac","title":"Stand-alone motivating frame"},
{"location":{"lat":29.833396,"lng":108.731128},"created":"8/29/2018","headline":"arcu sed augue aliquam erat volutpat in congue","comment":"mattis egestas metus aenean fermentum donec ut mauris eget massa tempor","title":"Implemented heuristic definition"},
{"location":{"lat":65.5759908,"lng":22.1917204},"created":"5/11/2018","headline":"potenti nullam porttitor lacus at","comment":"dictumst aliquam augue quam sollicitudin vitae consectetuer eget rutrum at","title":"Cross-group impactful instruction set"},
{"location":{"lat":-6.2023936,"lng":106.6527099},"created":"10/22/2018","headline":"nonummy integer non velit donec diam","comment":"donec diam neque vestibulum eget vulputate ut ultrices vel augue vestibulum ante ipsum primis in faucibus orci luctus","title":"Front-line directional data-warehouse"},
{"location":{"lat":45.4744072,"lng":39.8789122},"created":"8/21/2018","headline":"consectetuer adipiscing elit proin interdum mauris","comment":"pede ac diam cras pellentesque volutpat dui maecenas tristique est et tempus","title":"Polarised client-driven superstructure"},
{"location":{"lat":-0.1234606,"lng":109.2593642},"created":"1/24/2019","headline":"habitasse platea dictumst maecenas ut","comment":"pellentesque volutpat dui maecenas tristique est et tempus semper est quam pharetra magna ac consequat metus sapien ut nunc vestibulum","title":"Open-source tertiary core"},
{"location":{"lat":40.4709245,"lng":-7.9185148},"created":"1/28/2018","headline":"morbi ut odio cras mi pede malesuada in","comment":"lorem id ligula suspendisse ornare consequat lectus in est risus auctor sed tristique in tempus sit amet sem fusce","title":"Expanded encompassing infrastructure"},
{"location":{"lat":1.424768,"lng":103.6487041},"created":"3/18/2018","headline":"vestibulum ac est lacinia nisi venenatis tristique fusce","comment":"velit eu est congue elementum in hac habitasse platea dictumst morbi vestibulum velit id pretium iaculis diam erat fermentum justo","title":"Ergonomic asymmetric leverage"},
{"location":{"lat":9.8769686,"lng":123.3996176},"created":"12/30/2018","headline":"donec vitae nisi nam ultrices libero non mattis","comment":"diam id ornare imperdiet sapien urna pretium nisl ut volutpat sapien arcu sed augue aliquam erat volutpat","title":"Operative logistical portal"},
{"location":{"lat":43.8324929,"lng":4.3662321},"created":"1/10/2019","headline":"odio cras mi pede malesuada in imperdiet","comment":"praesent blandit nam nulla integer pede justo lacinia eget tincidunt eget tempus vel pede morbi","title":"Synergistic modular extranet"},
{"location":{"lat":-15.1709148,"lng":-72.8308692},"created":"6/25/2018","headline":"in lectus pellentesque at nulla suspendisse","comment":"in felis donec semper sapien a libero nam dui proin leo odio","title":"Reduced holistic superstructure"},
{"location":{"lat":47.6126,"lng":107.0219496},"created":"3/12/2018","headline":"molestie hendrerit at vulputate vitae nisl aenean lectus pellentesque","comment":"purus phasellus in felis donec semper sapien a libero nam dui proin leo odio porttitor id consequat in","title":"Seamless analyzing definition"},
{"location":{"lat":55.6024656,"lng":31.1754015},"created":"12/24/2018","headline":"tortor quis turpis sed ante vivamus tortor duis mattis","comment":"orci mauris lacinia sapien quis libero nullam sit amet turpis elementum ligula","title":"Devolved clear-thinking architecture"},
{"location":{"lat":28.0955558,"lng":112.9937015},"created":"9/10/2018","headline":"blandit lacinia erat vestibulum sed magna","comment":"amet consectetuer adipiscing elit proin risus praesent lectus vestibulum quam sapien varius ut blandit non interdum in ante vestibulum ante","title":"Persistent incremental attitude"},
{"location":{"lat":6.6101493,"lng":0.4785495},"created":"1/18/2019","headline":"mus etiam vel augue vestibulum rutrum rutrum","comment":"dis parturient montes nascetur ridiculus mus etiam vel augue vestibulum rutrum rutrum neque aenean auctor gravida sem praesent","title":"Exclusive grid-enabled structure"},
{"location":{"lat":50.3396453,"lng":13.4748408},"created":"1/23/2019","headline":"ut erat id mauris vulputate elementum","comment":"amet cursus id turpis integer aliquet massa id lobortis convallis tortor risus dapibus augue vel accumsan","title":"Multi-tiered regional time-frame"},
{"location":{"lat":48.0147763,"lng":15.2299747},"created":"6/11/2018","headline":"eleifend luctus ultricies eu nibh quisque id justo sit amet","comment":"eu massa donec dapibus duis at velit eu est congue elementum in hac habitasse","title":"Upgradable solution-oriented Graphic Interface"},
{"location":{"lat":36.639033,"lng":114.462061},"created":"2/1/2018","headline":"quam fringilla rhoncus mauris enim leo rhoncus sed","comment":"ridiculus mus vivamus vestibulum sagittis sapien cum sociis natoque penatibus et magnis","title":"Configurable well-modulated utilisation"},
{"location":{"lat":54.3191956,"lng":62.5910092},"created":"11/2/2018","headline":"adipiscing molestie hendrerit at vulputate vitae nisl aenean lectus","comment":"sem fusce consequat nulla nisl nunc nisl duis bibendum felis","title":"Ergonomic bi-directional architecture"},
{"location":{"lat":"42.83528","lng":"22.65167"},"created":"6/16/2018","headline":"ante vivamus tortor duis mattis egestas metus aenean fermentum donec","comment":"blandit lacinia erat vestibulum sed magna at nunc commodo placerat praesent blandit nam nulla integer pede justo lacinia eget","title":"Enterprise-wide explicit definition"},
{"location":{"lat":29.233463,"lng":119.902455},"created":"8/19/2018","headline":"enim blandit mi in porttitor pede justo eu massa donec","comment":"dui proin leo odio porttitor id consequat in consequat ut","title":"Distributed grid-enabled process improvement"},
{"location":{"lat":-21.5950536,"lng":-48.8163705},"created":"2/23/2018","headline":"pellentesque ultrices mattis odio donec","comment":"nec nisi volutpat eleifend donec ut dolor morbi vel lectus","title":"Fully-configurable leading edge archive"},
{"location":{"lat":37.3931794,"lng":-122.0778761},"created":"8/4/2018","headline":"vel sem sed sagittis nam congue","comment":"mauris sit amet eros suspendisse accumsan tortor quis turpis sed ante vivamus tortor duis mattis egestas metus","title":"Stand-alone radical hub"},
{"location":{"lat":14.5823299,"lng":120.9946341},"created":"9/7/2018","headline":"aliquam lacus morbi quis tortor id nulla ultrices aliquet","comment":"quam sapien varius ut blandit non interdum in ante vestibulum ante ipsum primis in faucibus orci","title":"Secured mission-critical artificial intelligence"},
{"location":{"lat":59.2669111,"lng":17.8885705},"created":"11/26/2018","headline":"sit amet cursus id turpis integer aliquet massa id","comment":"orci mauris lacinia sapien quis libero nullam sit amet turpis elementum ligula vehicula","title":"Operative incremental structure"},
{"location":{"lat":-30.2488032,"lng":-54.9226452},"created":"10/6/2018","headline":"purus aliquet at feugiat non pretium quis lectus","comment":"curabitur convallis duis consequat dui nec nisi volutpat eleifend donec ut dolor morbi vel lectus","title":"Operative well-modulated task-force"},
{"location":{"lat":-8.506296,"lng":115.27916},"created":"9/16/2018","headline":"mauris vulputate elementum nullam varius nulla facilisi cras","comment":"in leo maecenas pulvinar lobortis est phasellus sit amet erat nulla tempus","title":"Open-architected global moratorium"},
{"location":{"lat":17.0597577,"lng":98.6160674},"created":"5/13/2018","headline":"phasellus in felis donec semper","comment":"odio porttitor id consequat in consequat ut nulla sed accumsan felis ut at dolor quis odio consequat varius integer","title":"Stand-alone well-modulated capability"},
{"location":{"lat":47.440449,"lng":19.1700809},"created":"10/22/2018","headline":"cras non velit nec nisi vulputate nonummy maecenas tincidunt","comment":"eget vulputate ut ultrices vel augue vestibulum ante ipsum primis","title":"Face to face modular forecast"},
{"location":{"lat":32.509155,"lng":120.127934},"created":"11/6/2018","headline":"ornare imperdiet sapien urna pretium","comment":"quam suspendisse potenti nullam porttitor lacus at turpis donec posuere metus vitae ipsum aliquam non mauris","title":"Expanded leading edge extranet"},
{"location":{"lat":45.0428681,"lng":3.8924136},"created":"1/28/2018","headline":"turpis eget elit sodales scelerisque mauris","comment":"enim sit amet nunc viverra dapibus nulla suscipit ligula in lacus curabitur at ipsum ac tellus semper","title":"Vision-oriented uniform firmware"},
{"location":{"lat":50.5878419,"lng":13.8083154},"created":"3/1/2018","headline":"vestibulum ante ipsum primis in faucibus orci luctus","comment":"in faucibus orci luctus et ultrices posuere cubilia curae mauris viverra diam vitae quam suspendisse","title":"Switchable 4th generation productivity"},
{"location":{"lat":-18.1772379,"lng":-63.8817832},"created":"10/5/2018","headline":"vestibulum ante ipsum primis in faucibus","comment":"erat fermentum justo nec condimentum neque sapien placerat ante nulla justo aliquam quis","title":"Public-key object-oriented architecture"},
{"location":{"lat":48.007399,"lng":-66.6722057},"created":"8/6/2018","headline":"congue etiam justo etiam pretium iaculis justo in hac","comment":"ultrices erat tortor sollicitudin mi sit amet lobortis sapien sapien non mi","title":"Networked heuristic architecture"},
{"location":{"lat":41.2525891,"lng":-7.8102718},"created":"9/8/2018","headline":"pretium iaculis diam erat fermentum justo","comment":"nam ultrices libero non mattis pulvinar nulla pede ullamcorper augue a","title":"User-friendly stable infrastructure"},
{"location":{"lat":50.5429237,"lng":3.086469},"created":"11/6/2018","headline":"praesent id massa id nisl venenatis lacinia","comment":"gravida sem praesent id massa id nisl venenatis lacinia aenean sit amet justo morbi ut odio cras","title":"Public-key full-range customer loyalty"},
{"location":{"lat":"42.54688","lng":"72.20921"},"created":"2/28/2018","headline":"eget rutrum at lorem integer tincidunt ante vel ipsum praesent","comment":"vel pede morbi porttitor lorem id ligula suspendisse ornare consequat lectus in est risus auctor","title":"Implemented discrete challenge"},
{"location":{"lat":10.7179292,"lng":122.3066411},"created":"4/27/2018","headline":"consequat morbi a ipsum integer","comment":"semper sapien a libero nam dui proin leo odio porttitor","title":"Fundamental responsive initiative"},
{"location":{"lat":13.9791936,"lng":121.7983634},"created":"10/7/2018","headline":"venenatis turpis enim blandit mi","comment":"sollicitudin vitae consectetuer eget rutrum at lorem integer tincidunt ante vel ipsum praesent blandit lacinia erat vestibulum sed magna","title":"Multi-tiered even-keeled model"},
{"location":{"lat":61.7968844,"lng":25.7035513},"created":"8/15/2018","headline":"venenatis non sodales sed tincidunt eu felis","comment":"amet cursus id turpis integer aliquet massa id lobortis convallis tortor risus dapibus augue vel accumsan tellus nisi eu orci","title":"Re-contextualized secondary capacity"},
{"location":{"lat":66.3887667,"lng":23.3361439},"created":"5/3/2018","headline":"eros viverra eget congue eget semper rutrum nulla nunc","comment":"rhoncus dui vel sem sed sagittis nam congue risus semper porta volutpat","title":"Managed homogeneous encoding"},
{"location":{"lat":-6.6939179,"lng":111.5617354},"created":"11/1/2018","headline":"erat volutpat in congue etiam justo etiam","comment":"neque duis bibendum morbi non quam nec dui luctus rutrum","title":"Re-contextualized mobile project"},
{"location":{"lat":14.5671847,"lng":121.0168871},"created":"5/10/2018","headline":"nibh in quis justo maecenas rhoncus aliquam","comment":"habitasse platea dictumst morbi vestibulum velit id pretium iaculis diam erat fermentum justo nec condimentum neque","title":"Customer-focused methodical website"},
{"location":{"lat":28.062918,"lng":99.492635},"created":"11/14/2018","headline":"lobortis convallis tortor risus dapibus augue","comment":"posuere felis sed lacus morbi sem mauris laoreet ut rhoncus aliquet pulvinar sed nisl nunc rhoncus dui vel","title":"Monitored composite capability"},
{"location":{"lat":34.0665041,"lng":47.9762632},"created":"7/30/2018","headline":"dolor quis odio consequat varius","comment":"sapien quis libero nullam sit amet turpis elementum ligula vehicula consequat morbi a ipsum integer a","title":"Programmable full-range synergy"},
{"location":{"lat":36.706962,"lng":119.161748},"created":"9/20/2018","headline":"sem sed sagittis nam congue risus","comment":"placerat praesent blandit nam nulla integer pede justo lacinia eget tincidunt eget tempus vel","title":"Managed static challenge"},
{"location":{"lat":50.3308509,"lng":15.2702996},"created":"3/23/2018","headline":"metus arcu adipiscing molestie hendrerit at vulputate","comment":"posuere cubilia curae donec pharetra magna vestibulum aliquet ultrices erat tortor sollicitudin mi","title":"Open-source background policy"},
{"location":{"lat":54.24052,"lng":16.88967},"created":"2/26/2018","headline":"duis bibendum felis sed interdum venenatis turpis","comment":"nulla neque libero convallis eget eleifend luctus ultricies eu nibh quisque id","title":"Digitized fresh-thinking core"},
{"location":{"lat":26.7647964,"lng":31.4982868},"created":"11/7/2018","headline":"vivamus tortor duis mattis egestas metus","comment":"id ligula suspendisse ornare consequat lectus in est risus auctor sed tristique in tempus","title":"Stand-alone client-driven database"},
{"location":{"lat":46.136968,"lng":15.3941873},"created":"1/7/2019","headline":"sapien cum sociis natoque penatibus et magnis","comment":"augue aliquam erat volutpat in congue etiam justo etiam pretium iaculis justo in hac habitasse platea dictumst","title":"Future-proofed uniform contingency"},
{"location":{"lat":-8.3165281,"lng":-40.2680075},"created":"11/26/2018","headline":"venenatis lacinia aenean sit amet justo morbi ut","comment":"faucibus orci luctus et ultrices posuere cubilia curae donec pharetra magna","title":"Grass-roots value-added collaboration"},
{"location":{"lat":44.34072,"lng":129.4828511},"created":"6/8/2018","headline":"pellentesque at nulla suspendisse potenti cras in purus eu magna","comment":"in felis eu sapien cursus vestibulum proin eu mi nulla","title":"Synergistic content-based circuit"},
{"location":{"lat":-8.2058799,"lng":113.1724461},"created":"11/2/2018","headline":"orci luctus et ultrices posuere cubilia curae nulla","comment":"consequat morbi a ipsum integer a nibh in quis justo maecenas rhoncus aliquam lacus morbi quis tortor id","title":"Focused stable installation"},
{"location":{"lat":-6.968354,"lng":112.475502},"created":"11/9/2018","headline":"aliquet ultrices erat tortor sollicitudin","comment":"tortor duis mattis egestas metus aenean fermentum donec ut mauris eget massa tempor convallis","title":"Re-contextualized executive data-warehouse"},
{"location":{"lat":46.119266,"lng":73.6086655},"created":"3/8/2018","headline":"ut nunc vestibulum ante ipsum primis in faucibus orci","comment":"morbi quis tortor id nulla ultrices aliquet maecenas leo odio condimentum id luctus nec molestie sed justo pellentesque viverra pede","title":"Inverse encompassing installation"},
{"location":{"lat":-7.935395,"lng":111.8210866},"created":"9/13/2018","headline":"lacinia nisi venenatis tristique fusce congue diam id ornare","comment":"urna ut tellus nulla ut erat id mauris vulputate elementum nullam varius nulla facilisi cras non velit nec nisi vulputate","title":"Open-source interactive customer loyalty"},
{"location":{"lat":50.3539899,"lng":19.4629659},"created":"2/25/2018","headline":"consequat dui nec nisi volutpat eleifend donec ut dolor morbi","comment":"diam erat fermentum justo nec condimentum neque sapien placerat ante nulla justo aliquam","title":"Up-sized encompassing matrix"},
{"location":{"lat":54.147514,"lng":45.2217972},"created":"3/21/2018","headline":"consequat lectus in est risus auctor","comment":"luctus et ultrices posuere cubilia curae donec pharetra magna vestibulum aliquet ultrices erat tortor sollicitudin mi sit amet lobortis","title":"Team-oriented bandwidth-monitored knowledge user"},
{"location":{"lat":"-7.6476","lng":"114.0461"},"created":"9/29/2018","headline":"vestibulum ante ipsum primis in faucibus orci","comment":"nonummy integer non velit donec diam neque vestibulum eget vulputate ut ultrices vel augue vestibulum ante ipsum primis","title":"Triple-buffered mobile attitude"},
{"location":{"lat":31.4374773,"lng":-7.4060306},"created":"3/7/2018","headline":"amet turpis elementum ligula vehicula consequat morbi","comment":"metus sapien ut nunc vestibulum ante ipsum primis in faucibus orci luctus et ultrices posuere","title":"Adaptive leading edge Graphic Interface"},
{"location":{"lat":28.701403,"lng":117.194396},"created":"4/23/2018","headline":"in hac habitasse platea dictumst morbi vestibulum velit id pretium","comment":"faucibus orci luctus et ultrices posuere cubilia curae donec pharetra magna vestibulum","title":"Organized intangible utilisation"},
{"location":{"lat":7.5252594,"lng":122.3617095},"created":"2/10/2018","headline":"ultrices aliquet maecenas leo odio","comment":"eu nibh quisque id justo sit amet sapien dignissim vestibulum vestibulum ante ipsum","title":"Organized real-time archive"},
{"location":{"lat":45.4912891,"lng":20.6465628},"created":"10/29/2018","headline":"non lectus aliquam sit amet diam in magna bibendum imperdiet","comment":"sollicitudin mi sit amet lobortis sapien sapien non mi integer ac neque duis","title":"Upgradable disintermediate Graphic Interface"},
{"location":{"lat":-15.1632458,"lng":19.1612478},"created":"5/26/2018","headline":"phasellus sit amet erat nulla tempus","comment":"maecenas tincidunt lacus at velit vivamus vel nulla eget eros elementum pellentesque quisque porta","title":"User-centric optimal knowledge user"},
{"location":{"lat":24.9936281,"lng":121.3009798},"created":"5/5/2018","headline":"viverra dapibus nulla suscipit ligula in lacus curabitur at ipsum","comment":"ultrices mattis odio donec vitae nisi nam ultrices libero non mattis pulvinar nulla pede ullamcorper augue a","title":"Robust content-based internet solution"},
{"location":{"lat":31.784701,"lng":87.236772},"created":"3/25/2018","headline":"vel dapibus at diam nam tristique tortor eu","comment":"ac diam cras pellentesque volutpat dui maecenas tristique est et tempus semper est quam pharetra","title":"Customizable attitude-oriented initiative"},
{"location":{"lat":-14,"lng":-73.933333},"created":"8/9/2018","headline":"iaculis justo in hac habitasse","comment":"luctus rutrum nulla tellus in sagittis dui vel nisl duis ac","title":"Up-sized systemic interface"},
{"location":{"lat":29.3365728,"lng":47.6755291},"created":"7/30/2018","headline":"nulla tempus vivamus in felis eu sapien cursus","comment":"velit vivamus vel nulla eget eros elementum pellentesque quisque porta","title":"Programmable asymmetric interface"},
{"location":{"lat":39.6048507,"lng":-7.9965492},"created":"2/18/2018","headline":"morbi non quam nec dui","comment":"nam dui proin leo odio porttitor id consequat in consequat ut nulla sed accumsan felis ut at dolor quis","title":"Digitized 4th generation process improvement"},
{"location":{"lat":44.4466286,"lng":18.6510559},"created":"2/4/2018","headline":"tincidunt eu felis fusce posuere felis sed lacus morbi sem","comment":"at vulputate vitae nisl aenean lectus pellentesque eget nunc donec quis orci eget orci vehicula condimentum curabitur","title":"Automated analyzing toolset"},
{"location":{"lat":32.9234588,"lng":12.0775411},"created":"8/31/2018","headline":"faucibus orci luctus et ultrices posuere cubilia curae nulla dapibus","comment":"et commodo vulputate justo in blandit ultrices enim lorem ipsum dolor sit amet consectetuer adipiscing elit proin interdum mauris non","title":"Fully-configurable actuating application"},
{"location":{"lat":"55.68871","lng":"46.13865"},"created":"5/18/2018","headline":"ultrices enim lorem ipsum dolor sit amet consectetuer adipiscing","comment":"morbi porttitor lorem id ligula suspendisse ornare consequat lectus in est risus auctor sed tristique in tempus","title":"Innovative bi-directional portal"},
{"location":{"lat":27.569678,"lng":116.63704},"created":"2/25/2018","headline":"tincidunt nulla mollis molestie lorem quisque ut erat curabitur gravida","comment":"sem mauris laoreet ut rhoncus aliquet pulvinar sed nisl nunc rhoncus dui vel sem sed","title":"Ameliorated non-volatile productivity"},
{"location":{"lat":24.1092009,"lng":117.1199596},"created":"8/2/2018","headline":"cursus urna ut tellus nulla ut erat id mauris","comment":"erat curabitur gravida nisi at nibh in hac habitasse platea dictumst aliquam","title":"Right-sized homogeneous data-warehouse"},
{"location":{"lat":-25.3907214,"lng":-51.4628097},"created":"4/5/2018","headline":"penatibus et magnis dis parturient montes nascetur ridiculus mus","comment":"amet eleifend pede libero quis orci nullam molestie nibh in lectus pellentesque at nulla suspendisse potenti cras in","title":"Total neutral Graphic Interface"},
{"location":{"lat":"52.3506","lng":"31.1121"},"created":"3/29/2018","headline":"in sagittis dui vel nisl duis","comment":"sociis natoque penatibus et magnis dis parturient montes nascetur ridiculus mus vivamus vestibulum sagittis sapien","title":"Cloned composite local area network"},
{"location":{"lat":52.1501483,"lng":20.8188133},"created":"6/14/2018","headline":"morbi sem mauris laoreet ut rhoncus aliquet","comment":"eleifend luctus ultricies eu nibh quisque id justo sit amet sapien dignissim vestibulum vestibulum ante ipsum primis","title":"Fully-configurable directional extranet"},
{"location":{"lat":34.270691,"lng":99.194957},"created":"1/11/2019","headline":"velit nec nisi vulputate nonummy maecenas tincidunt","comment":"id lobortis convallis tortor risus dapibus augue vel accumsan tellus nisi eu orci mauris lacinia sapien quis libero","title":"Expanded mission-critical ability"},
{"location":{"lat":58.5563017,"lng":15.0091903},"created":"4/5/2018","headline":"faucibus accumsan odio curabitur convallis duis","comment":"est donec odio justo sollicitudin ut suscipit a feugiat et eros vestibulum ac est lacinia","title":"Cloned well-modulated frame"},
{"location":{"lat":31.270307,"lng":121.537613},"created":"6/18/2018","headline":"leo maecenas pulvinar lobortis est phasellus sit amet erat","comment":"nulla justo aliquam quis turpis eget elit sodales scelerisque mauris","title":"Synchronised optimizing artificial intelligence"},
{"location":{"lat":32.0681759,"lng":23.941751},"created":"2/26/2018","headline":"egestas metus aenean fermentum donec ut mauris eget","comment":"quis lectus suspendisse potenti in eleifend quam a odio in hac habitasse platea dictumst maecenas ut","title":"Streamlined 5th generation solution"},
{"location":{"lat":20.9924634,"lng":105.6404254},"created":"7/21/2018","headline":"nisl nunc rhoncus dui vel","comment":"pede morbi porttitor lorem id ligula suspendisse ornare consequat lectus in","title":"Fundamental executive task-force"},
{"location":{"lat":37.73892,"lng":115.670177},"created":"4/29/2018","headline":"ligula pellentesque ultrices phasellus id sapien in sapien iaculis","comment":"nunc viverra dapibus nulla suscipit ligula in lacus curabitur at ipsum ac tellus semper interdum mauris ullamcorper purus sit","title":"Multi-lateral demand-driven extranet"},
{"location":{"lat":67.4020883,"lng":26.6725662},"created":"8/19/2018","headline":"dignissim vestibulum vestibulum ante ipsum","comment":"mauris lacinia sapien quis libero nullam sit amet turpis elementum ligula vehicula consequat morbi a ipsum integer","title":"Distributed optimal system engine"},
{"location":{"lat":8.9800511,"lng":126.2545687},"created":"1/5/2019","headline":"rhoncus aliquam lacus morbi quis","comment":"eu orci mauris lacinia sapien quis libero nullam sit amet turpis elementum ligula vehicula consequat morbi a ipsum","title":"Open-architected tangible productivity"},
{"location":{"lat":36.681449,"lng":69.1149051},"created":"10/12/2018","headline":"faucibus cursus urna ut tellus nulla ut erat","comment":"primis in faucibus orci luctus et ultrices posuere cubilia curae nulla dapibus dolor vel","title":"Optional 5th generation paradigm"},
{"location":{"lat":28.54,"lng":-81.38},"created":"7/26/2018","headline":"justo nec condimentum neque sapien placerat","comment":"nisl duis ac nibh fusce lacus purus aliquet at feugiat non pretium quis lectus suspendisse potenti in eleifend quam","title":"Quality-focused didactic algorithm"},
{"location":{"lat":35.0435187,"lng":25.0928704},"created":"11/8/2018","headline":"erat nulla tempus vivamus in felis eu sapien","comment":"ultrices posuere cubilia curae nulla dapibus dolor vel est donec odio justo sollicitudin ut suscipit a feugiat et eros vestibulum","title":"Sharable fault-tolerant open system"},
{"location":{"lat":14.657758,"lng":120.9888316},"created":"8/3/2018","headline":"platea dictumst aliquam augue quam sollicitudin vitae consectetuer eget rutrum","comment":"ridiculus mus vivamus vestibulum sagittis sapien cum sociis natoque penatibus et magnis","title":"Optimized 4th generation Graphical User Interface"},
{"location":{"lat":20.4170831,"lng":104.04787},"created":"4/12/2018","headline":"nisi at nibh in hac habitasse","comment":"hac habitasse platea dictumst morbi vestibulum velit id pretium iaculis diam erat fermentum justo","title":"Cross-platform interactive knowledge base"},
{"location":{"lat":37.1686873,"lng":10.188536},"created":"7/4/2018","headline":"sapien iaculis congue vivamus metus arcu adipiscing molestie hendrerit","comment":"ante vel ipsum praesent blandit lacinia erat vestibulum sed magna at nunc commodo placerat praesent","title":"Networked discrete projection"},
{"location":{"lat":-7.9655412,"lng":110.6008827},"created":"2/24/2018","headline":"fusce congue diam id ornare imperdiet sapien urna pretium nisl","comment":"ac tellus semper interdum mauris ullamcorper purus sit amet nulla quisque arcu libero rutrum","title":"Advanced secondary encryption"},
{"location":{"lat":41.3108613,"lng":-8.1338719},"created":"8/26/2018","headline":"faucibus cursus urna ut tellus nulla ut","comment":"turpis integer aliquet massa id lobortis convallis tortor risus dapibus augue vel accumsan tellus nisi","title":"Horizontal discrete info-mediaries"},
{"location":{"lat":-7.37242,"lng":110.6973469},"created":"8/19/2018","headline":"accumsan tortor quis turpis sed ante","comment":"morbi a ipsum integer a nibh in quis justo maecenas rhoncus aliquam lacus morbi quis tortor id nulla ultrices","title":"Extended clear-thinking initiative"},
{"location":{"lat":30.368126,"lng":102.814531},"created":"4/27/2018","headline":"tellus in sagittis dui vel nisl duis ac","comment":"luctus et ultrices posuere cubilia curae nulla dapibus dolor vel est donec odio justo sollicitudin ut suscipit a feugiat","title":"Down-sized radical database"},
{"location":{"lat":17.4488071,"lng":120.6213064},"created":"10/12/2018","headline":"donec ut dolor morbi vel lectus in quam fringilla rhoncus","comment":"eu interdum eu tincidunt in leo maecenas pulvinar lobortis est phasellus sit amet erat nulla","title":"Enhanced high-level database"},
{"location":{"lat":34.1230021,"lng":35.6519282},"created":"11/21/2018","headline":"turpis a pede posuere nonummy integer non velit donec diam","comment":"ipsum primis in faucibus orci luctus et ultrices posuere cubilia curae mauris viverra diam vitae quam suspendisse potenti nullam","title":"Streamlined heuristic portal"},
{"location":{"lat":"-8.1141","lng":"111.7762"},"created":"10/12/2018","headline":"proin interdum mauris non ligula pellentesque ultrices phasellus id","comment":"convallis duis consequat dui nec nisi volutpat eleifend donec ut dolor morbi vel lectus in quam fringilla rhoncus mauris enim","title":"Cross-group secondary moratorium"},
{"location":{"lat":40.5660046,"lng":-8.1351741},"created":"6/26/2018","headline":"nulla nisl nunc nisl duis","comment":"vel lectus in quam fringilla rhoncus mauris enim leo rhoncus sed vestibulum sit amet cursus id turpis integer aliquet massa","title":"Seamless global solution"},
{"location":{"lat":-7.4212735,"lng":107.172085},"created":"4/4/2018","headline":"integer pede justo lacinia eget tincidunt eget","comment":"elementum ligula vehicula consequat morbi a ipsum integer a nibh in quis justo maecenas","title":"Adaptive zero tolerance help-desk"},
{"location":{"lat":19.6031486,"lng":-99.0550357},"created":"10/4/2018","headline":"in quam fringilla rhoncus mauris enim leo rhoncus sed","comment":"sem mauris laoreet ut rhoncus aliquet pulvinar sed nisl nunc rhoncus dui vel sem sed sagittis","title":"Visionary web-enabled adapter"},
{"location":{"lat":23.1377928,"lng":113.2861345},"created":"8/18/2018","headline":"adipiscing molestie hendrerit at vulputate vitae nisl aenean lectus","comment":"volutpat in congue etiam justo etiam pretium iaculis justo in hac","title":"Balanced object-oriented functionalities"},
{"location":{"lat":32.9267098,"lng":130.845304},"created":"3/3/2018","headline":"in tempor turpis nec euismod","comment":"varius nulla facilisi cras non velit nec nisi vulputate nonummy","title":"Seamless homogeneous analyzer"},
{"location":{"lat":8.9066616,"lng":8.4074573},"created":"4/21/2018","headline":"nibh ligula nec sem duis","comment":"aliquet pulvinar sed nisl nunc rhoncus dui vel sem sed sagittis nam congue risus semper porta volutpat quam pede","title":"Grass-roots bandwidth-monitored hierarchy"},
{"location":{"lat":54.11215,"lng":-9.151825},"created":"7/11/2018","headline":"semper est quam pharetra magna","comment":"odio condimentum id luctus nec molestie sed justo pellentesque viverra pede ac diam cras pellentesque volutpat dui maecenas tristique","title":"Sharable hybrid workforce"},
{"location":{"lat":39.8752693,"lng":44.6683679},"created":"3/4/2018","headline":"et ultrices posuere cubilia curae mauris viverra diam","comment":"cursus vestibulum proin eu mi nulla ac enim in tempor turpis nec euismod scelerisque quam turpis adipiscing lorem","title":"Inverse mobile conglomeration"},
{"location":{"lat":25.474787,"lng":119.117992},"created":"7/17/2018","headline":"morbi porttitor lorem id ligula suspendisse ornare consequat lectus","comment":"nascetur ridiculus mus etiam vel augue vestibulum rutrum rutrum neque aenean auctor gravida sem","title":"Secured dynamic approach"},
{"location":{"lat":26.397624,"lng":117.79664},"created":"8/11/2018","headline":"porttitor id consequat in consequat ut nulla sed","comment":"rhoncus dui vel sem sed sagittis nam congue risus semper porta volutpat quam pede lobortis ligula sit amet eleifend","title":"Digitized system-worthy budgetary management"},
{"location":{"lat":23.788392,"lng":114.74638},"created":"7/2/2018","headline":"tellus nulla ut erat id mauris vulputate elementum nullam","comment":"morbi vel lectus in quam fringilla rhoncus mauris enim leo rhoncus","title":"Stand-alone object-oriented benchmark"},
{"location":{"lat":49.6633939,"lng":6.1317337},"created":"3/31/2018","headline":"congue elementum in hac habitasse","comment":"feugiat non pretium quis lectus suspendisse potenti in eleifend quam a odio in hac habitasse platea dictumst","title":"Stand-alone systematic info-mediaries"},
{"location":{"lat":-23.4819846,"lng":-49.2435998},"created":"3/27/2018","headline":"et commodo vulputate justo in blandit ultrices enim","comment":"convallis duis consequat dui nec nisi volutpat eleifend donec ut dolor morbi vel lectus in quam fringilla rhoncus","title":"Versatile static open system"},
{"location":{"lat":15.7147233,"lng":120.851094},"created":"9/14/2018","headline":"justo sit amet sapien dignissim","comment":"sit amet consectetuer adipiscing elit proin interdum mauris non ligula pellentesque ultrices phasellus id sapien in sapien iaculis congue","title":"Sharable holistic architecture"},
{"location":{"lat":45.2068153,"lng":73.9309807},"created":"2/5/2018","headline":"lacus morbi sem mauris laoreet ut rhoncus aliquet pulvinar sed","comment":"quisque porta volutpat erat quisque erat eros viverra eget congue eget semper rutrum nulla nunc purus phasellus in felis donec","title":"Synergistic bifurcated matrices"},
{"location":{"lat":28.133945,"lng":111.656407},"created":"5/22/2018","headline":"aliquam quis turpis eget elit sodales scelerisque mauris sit amet","comment":"justo sollicitudin ut suscipit a feugiat et eros vestibulum ac est lacinia nisi venenatis tristique fusce congue diam","title":"Open-architected background application"},
{"location":{"lat":41.305838,"lng":124.120286},"created":"3/17/2018","headline":"commodo placerat praesent blandit nam nulla integer pede justo lacinia","comment":"odio donec vitae nisi nam ultrices libero non mattis pulvinar nulla pede ullamcorper augue a suscipit nulla elit ac nulla","title":"Universal modular strategy"},